{"version": 0.6, "generator": "Overpass API 0.7.62.4 2390de5a", "osm3s": {"timestamp_osm_base": "2025-01-04T11:36:14Z", "copyright": "The data included in this document is from www.openstreetmap.org. The data is made available under ODbL."}, "elements": [{"type": "node", "id": 6044251054, "lat": 11.1239099, "lon": 79.088992, "tags": {"name": "Valajanagaram", "place": "suburb", "population": "3025", "source:name": "pmgsy", "source:population": "pmgsy"}}, {"type": "node", "id": 11231271439, "lat": 11.12833, "lon": 79.08212, "tags": {"name": "Minnagar", "place": "suburb", "population": "921", "source:name": "pmgsy", "source:population": "pmgsy"}}, {"type": "node", "id": 11231271488, "lat": 11.1391115, "lon": 79.0912613, "tags": {"name": "Sasthrinagar", "place": "suburb", "population": "236", "source:name": "pmgsy", "source:population": "pmgsy"}}, {"type": "node", "id": 11231271489, "lat": 11.1409532, "lon": 79.0868313, "tags": {"name": "Ravuthanpatti", "place": "suburb", "population": "1907", "source:name": "pmgsy", "source:population": "pmgsy"}}, {"type": "node", "id": 11231271490, "lat": 11.1390726, "lon": 79.0979917, "tags": {"name": "Arasunagar", "place": "suburb", "population": "295", "source:name": "pmgsy", "source:population": "pmgsy"}}, {"type": "node", "id": 11231271495, "lat": 11.1475163, "lon": 79.0729829, "tags": {"name": "Annanagar", "place": "suburb", "population": "951", "source:name": "pmgsy", "source:population": "pmgsy"}}]}