{"version": 0.6, "generator": "Overpass API 0.7.62.4 2390de5a", "osm3s": {"timestamp_osm_base": "2025-01-04T11:36:14Z", "copyright": "The data included in this document is from www.openstreetmap.org. The data is made available under ODbL."}, "elements": [{"type": "node", "id": 10683436167, "lat": 10.97421, "lon": 79.385805, "tags": {"name": "Chinnammal Kallarai", "place": "suburb", "population": "1267", "source:name": "pmgsy", "source:population": "pmgsy"}}, {"type": "node", "id": 10683436168, "lat": 10.97563, "lon": 79.37612, "tags": {"name": "Velakudi", "place": "suburb", "population": "982", "source:name": "pmgsy", "source:population": "pmgsy"}}, {"type": "node", "id": 10683436171, "lat": 10.9768978, "lon": 79.3885508, "tags": {"name": "Perumandy", "place": "suburb", "population": "4720", "source:name": "pmgsy", "source:population": "pmgsy"}}, {"type": "node", "id": 10683436173, "lat": 10.9796215, "lon": 79.3747921, "tags": {"name": "Mooppakovil", "place": "suburb", "population": "594", "source:name": "pmgsy", "source:population": "pmgsy"}}, {"type": "node", "id": 10683436175, "lat": 10.9712028, "lon": 79.4018254, "tags": {"name": "Ullur", "place": "suburb", "population": "4829", "source:name": "pmgsy", "source:population": "pmgsy"}}, {"type": "node", "id": 10683436176, "lat": 10.9747623, "lon": 79.3947529, "tags": {"name": "Kodayanthottam", "place": "suburb", "population": "3767", "source:name": "pmgsy", "source:population": "pmgsy"}}, {"type": "node", "id": 10683436178, "lat": 10.9814121, "lon": 79.3935975, "tags": {"name": "Santhanalpuram", "place": "suburb", "population": "957", "source:name": "pmgsy", "source:population": "pmgsy"}}, {"type": "node", "id": 10683436179, "lat": 10.9754769, "lon": 79.3818496, "tags": {"name": "Auto Nagar", "place": "suburb", "population": "3049", "source:name": "pmgsy", "source:population": "pmgsy"}}, {"type": "node", "id": 10683436180, "lat": 10.97919, "lon": 79.3901307, "tags": {"name": "Chatamkaruppur", "place": "suburb", "population": "1374", "source:name": "pmgsy", "source:population": "pmgsy"}}, {"type": "node", "id": 10683436181, "lat": 10.95604, "lon": 79.40923, "tags": {"name": "Komalavallipettai", "place": "suburb", "population": "1750", "source:name": "pmgsy", "source:population": "pmgsy"}}, {"type": "node", "id": 10683436183, "lat": 10.96162, "lon": 79.40451, "tags": {"name": "Kuppankulam", "place": "suburb", "population": "1200", "source:name": "pmgsy", "source:population": "pmgsy"}}, {"type": "node", "id": 10683436184, "lat": 10.95114, "lon": 79.39786, "tags": {"name": "Ambedkarnagar", "place": "suburb", "population": "252", "source:name": "pmgsy", "source:population": "pmgsy"}}, {"type": "node", "id": 10683436185, "lat": 10.95525, "lon": 79.39794, "tags": {"name": "Palavanthankattalai", "place": "suburb", "population": "2008", "source:name": "pmgsy", "source:population": "pmgsy"}}, {"type": "node", "id": 10683436186, "lat": 10.95557, "lon": 79.40428, "tags": {"name": "Muthupillaipandapam", "place": "suburb", "population": "1412", "source:name": "pmgsy", "source:population": "pmgsy"}}, {"type": "node", "id": 10683436187, "lat": 10.9592724, "lon": 79.3992916, "tags": {"name": "Chekkankanni", "place": "suburb", "population": "3077", "source:name": "pmgsy", "source:population": "pmgsy"}}, {"type": "node", "id": 10683436191, "lat": 10.9713939, "lon": 79.3634315, "tags": {"name": "Melacauvery", "place": "suburb", "population": "388", "source:name": "pmgsy", "source:population": "pmgsy"}}, {"type": "node", "id": 10683436198, "lat": 10.9492735, "lon": 79.3684245, "tags": {"name": "Annalagraharam", "place": "suburb", "population": "3568", "source:name": "pmgsy", "source:population": "pmgsy"}}, {"type": "node", "id": 10683436201, "lat": 10.9376514, "lon": 79.3809629, "tags": {"name": "Ariyathidal", "place": "suburb", "population": "2198", "source:name": "pmgsy", "source:population": "pmgsy"}}, {"type": "node", "id": 10683455007, "lat": 10.9459423, "lon": 79.379125, "tags": {"name": "Matthi", "place": "suburb", "population": "2218", "source:name": "pmgsy", "source:population": "pmgsy"}}]}