{"version": 0.6, "generator": "Overpass API 0.7.62.4 2390de5a", "osm3s": {"timestamp_osm_base": "2025-01-04T11:34:13Z", "copyright": "The data included in this document is from www.openstreetmap.org. The data is made available under ODbL."}, "elements": [{"type": "node", "id": 582986922, "lat": 11.9788045, "lon": 79.7843885, "tags": {"is_in": "Auroville", "name": "Service Farm", "place": "neighbourhood"}}, {"type": "node", "id": 582986927, "lat": 11.9769411, "lon": 79.7883383, "tags": {"is_in": "Auroville", "name": "Promesse", "place": "neighbourhood"}}, {"type": "node", "id": 582986940, "lat": 11.9876664, "lon": 79.7922488, "tags": {"is_in": "Auroville", "name": "Udayan", "name:hi": "\u0909\u0926\u092f\u0928", "place": "neighbourhood"}}, {"type": "node", "id": 582986948, "lat": 11.9877321, "lon": 79.7974256, "tags": {"is_in": "Auroville", "name": "Agni", "place": "neighbourhood"}}, {"type": "node", "id": 582986996, "lat": 12.0003718, "lon": 79.7989943, "tags": {"is_in": "Auroville", "name": "Siddartha", "place": "neighbourhood"}}, {"type": "node", "id": 582987107, "lat": 11.9807303, "lon": 79.8136237, "tags": {"is_in": "Auroville", "name": "Success", "place": "neighbourhood"}}, {"type": "node", "id": 582987109, "lat": 11.9800376, "lon": 79.8185214, "tags": {"is_in": "Auroville", "name": "Ravena", "place": "neighbourhood"}}, {"type": "node", "id": 582987119, "lat": 11.9818352, "lon": 79.8163488, "tags": {"is_in": "Auroville", "name": "Forecomers", "place": "neighbourhood"}}, {"type": "node", "id": 582987134, "lat": 11.9906038, "lon": 79.8145918, "tags": {"is_in": "Auroville", "name": "Abri", "place": "neighbourhood"}}, {"type": "node", "id": 582987136, "lat": 11.9916911, "lon": 79.8074385, "tags": {"is_in": "Auroville", "name": "Adventure", "place": "neighbourhood"}}, {"type": "node", "id": 582987142, "lat": 11.992831, "lon": 79.8130859, "tags": {"is_in": "Auroville", "name": "Evergreen", "place": "neighbourhood"}}, {"type": "node", "id": 582987146, "lat": 11.9959298, "lon": 79.8154844, "tags": {"is_in": "Auroville", "name": "Certitude", "place": "neighbourhood"}}, {"type": "node", "id": 582987151, "lat": 11.9877979, "lon": 79.8178547, "tags": {"is_in": "Auroville", "name": "New Lands", "place": "neighbourhood"}}, {"type": "node", "id": 582987153, "lat": 11.99113, "lon": 79.8172273, "tags": {"is_in": "Auroville", "name": "Ami", "place": "neighbourhood"}}, {"type": "node", "id": 582987160, "lat": 11.9918314, "lon": 79.8183747, "tags": {"is_in": "Auroville", "name": "Acceptance", "place": "neighbourhood"}}, {"type": "node", "id": 582987162, "lat": 11.9947934, "lon": 79.8191274, "tags": {"is_in": "Auroville", "name": "Gratitude", "place": "neighbourhood"}}, {"type": "node", "id": 582987169, "lat": 11.9954528, "lon": 79.8261983, "tags": {"is_in": "Auroville", "name": "Light", "name:ta": "\u0b92\u0bb3\u0bbf", "place": "neighbourhood"}}, {"type": "node", "id": 582987172, "lat": 11.9851078, "lon": 79.8371484, "tags": {"is_in": "Auroville", "name": "Shakti", "name:ta": "\u0b9a\u0b95\u0bcd\u0ba4\u0bbf", "place": "neighbourhood"}}, {"type": "node", "id": 582987173, "lat": 11.9857436, "lon": 79.8346043, "tags": {"is_in": "Auroville", "name": "Aspiration", "place": "neighbourhood"}}, {"type": "node", "id": 582987180, "lat": 11.9840178, "lon": 79.8338057, "tags": {"is_in": "Auroville", "name": "La Feme", "place": "neighbourhood"}}, {"type": "node", "id": 582987208, "lat": 11.9867608, "lon": 79.8314473, "tags": {"is_in": "Auroville", "name": "Aureka", "place": "neighbourhood"}}, {"type": "node", "id": 582987215, "lat": 11.9870152, "lon": 79.8323386, "tags": {"is_in": "Auroville", "name": "Pour Tous", "place": "neighbourhood"}}, {"type": "node", "id": 582987235, "lat": 11.993514, "lon": 79.8309468, "tags": {"is_in": "Auroville", "name": "New Creation", "place": "neighbourhood"}}, {"type": "node", "id": 582987242, "lat": 11.9964629, "lon": 79.8306445, "tags": {"is_in": "Auroville", "name": "Arya", "name:ta": "\u0b86\u0bb0\u0bcd\u0baf\u0bbe", "place": "neighbourhood"}}, {"type": "node", "id": 582987253, "lat": 11.9935728, "lon": 79.8337711, "tags": {"is_in": "Auroville", "name": "Fraternity", "place": "neighbourhood"}}, {"type": "node", "id": 582987254, "lat": 11.9911336, "lon": 79.836054, "tags": {"is_in": "Auroville", "name": "Douceur", "place": "neighbourhood"}}, {"type": "node", "id": 582987255, "lat": 11.9964629, "lon": 79.8364532, "tags": {"is_in": "Auroville", "name": "Djaima", "place": "neighbourhood"}}, {"type": "node", "id": 582987258, "lat": 11.9875843, "lon": 79.8391284, "tags": {"is_in": "Auroville", "name": "Agni Jata", "place": "neighbourhood"}}, {"type": "node", "id": 582987259, "lat": 11.9898853, "lon": 79.8409368, "tags": {"is_in": "Auroville", "name": "Auromodele", "place": "neighbourhood"}}, {"type": "node", "id": 582987269, "lat": 11.9934326, "lon": 79.8379018, "tags": {"is_in": "Auroville", "name": "Petite Ferme", "place": "neighbourhood"}}, {"type": "node", "id": 582987273, "lat": 11.9941481, "lon": 79.8397663, "tags": {"is_in": "Auroville", "name": "Akashwa", "place": "neighbourhood"}}, {"type": "node", "id": 582987275, "lat": 11.9953264, "lon": 79.8407527, "tags": {"is_in": "Auroville", "name": "Gaia's Garden", "place": "neighbourhood"}}, {"type": "node", "id": 582987277, "lat": 11.9974153, "lon": 79.8112823, "tags": {"is_in": "Auroville", "name": "Courage", "place": "neighbourhood"}}, {"type": "node", "id": 582987279, "lat": 12.0007907, "lon": 79.8147872, "tags": {"is_in": "Auroville", "name": "Creativity", "name:ta": "\u0baa\u0b9f\u0bc8\u0baa\u0bcd\u0baa\u0bbe\u0bb1\u0bcd\u0bb1\u0bb2\u0bcd", "place": "neighbourhood"}}, {"type": "node", "id": 582987280, "lat": 12.0010913, "lon": 79.8132562, "tags": {"is_in": "Auroville", "name": "Sailam", "place": "neighbourhood"}}, {"type": "node", "id": 582987289, "lat": 12.0049294, "lon": 79.8154064, "tags": {"is_in": "Auroville", "name": "Arka", "place": "neighbourhood"}}, {"type": "node", "id": 582987306, "lat": 11.9985427, "lon": 79.8183861, "tags": {"is_in": "Auroville", "name": "Samasti", "place": "neighbourhood"}}, {"type": "node", "id": 582987307, "lat": 11.998669, "lon": 79.8159479, "tags": {"is_in": "Auroville", "name": "Prarthana", "place": "neighbourhood"}}, {"type": "node", "id": 582987314, "lat": 12.0023969, "lon": 79.8168591, "tags": {"is_in": "Auroville", "name": "Arati", "place": "neighbourhood"}}, {"type": "node", "id": 582987316, "lat": 12.0012644, "lon": 79.8168084, "tags": {"is_in": "Auroville", "name": "Prayatna", "place": "neighbourhood"}}, {"type": "node", "id": 582987317, "lat": 11.9998185, "lon": 79.8186973, "tags": {"is_in": "Auroville", "name": "Sharnga", "place": "neighbourhood"}}, {"type": "node", "id": 582987319, "lat": 12.0033557, "lon": 79.8158956, "tags": {"is_in": "Auroville", "name": "Invocation", "place": "neighbourhood"}}, {"type": "node", "id": 582987320, "lat": 12.0047892, "lon": 79.8162311, "tags": {"is_in": "Auroville", "name": "Surrender", "place": "neighbourhood"}}, {"type": "node", "id": 582987325, "lat": 12.0076252, "lon": 79.8191145, "tags": {"is_in": "Auroville", "name": "Gaia", "place": "neighbourhood"}}, {"type": "node", "id": 582987333, "lat": 12.0099267, "lon": 79.8081783, "tags": {"is_in": "Auroville", "name": "Shanti", "name:ta": "\u0b9a\u0bbe\u0ba8\u0bcd\u0ba4\u0bbf", "place": "neighbourhood"}}, {"type": "node", "id": 582987334, "lat": 12.0110446, "lon": 79.8051529, "tags": {"is_in": "Auroville", "name": "Darkali", "place": "neighbourhood"}}, {"type": "node", "id": 582987338, "lat": 12.0148804, "lon": 79.8105391, "tags": {"is_in": "Auroville", "name": "Horizon", "place": "neighbourhood"}}, {"type": "node", "id": 582987343, "lat": 12.0151874, "lon": 79.8055339, "tags": {"is_in": "Auroville", "name": "Yantra", "name:ta": "\u0baf\u0ba8\u0bcd\u0ba4\u0bcd\u0bb0\u0bbe", "place": "neighbourhood"}}, {"type": "node", "id": 582987347, "lat": 12.0170944, "lon": 79.8050633, "tags": {"is_in": "Auroville", "name": "Silence", "place": "neighbourhood"}}, {"type": "node", "id": 582987350, "lat": 12.010629, "lon": 79.8166122, "tags": {"is_in": "Auroville", "name": "Kalabhumi", "place": "neighbourhood"}}, {"type": "node", "id": 582987351, "lat": 12.0125789, "lon": 79.8175681, "tags": {"is_in": "Auroville", "name": "Transformation", "place": "neighbourhood"}}, {"type": "node", "id": 582987356, "lat": 12.012031, "lon": 79.8231931, "tags": {"is_in": "Auroville", "name": "Meadow", "place": "neighbourhood"}}, {"type": "node", "id": 582987359, "lat": 12.0168217, "lon": 79.8163422, "tags": {"is_in": "Auroville", "name": "Minati", "place": "neighbourhood"}}, {"type": "node", "id": 582987397, "lat": 12.0085645, "lon": 79.8287868, "tags": {"is_in": "Auroville", "name": "Two Banyans", "place": "neighbourhood"}}, {"type": "node", "id": 582987398, "lat": 12.0132508, "lon": 79.828926, "tags": {"is_in": "Auroville", "name": "Fertile East", "place": "neighbourhood"}}, {"type": "node", "id": 582987401, "lat": 12.0130691, "lon": 79.8315909, "tags": {"is_in": "Auroville", "name": "Aurogreen", "place": "neighbourhood"}}, {"type": "node", "id": 582987406, "lat": 12.0154668, "lon": 79.8316652, "tags": {"is_in": "Auroville", "name": "Nilatangam", "place": "neighbourhood"}}, {"type": "node", "id": 582987424, "lat": 12.0200711, "lon": 79.8068357, "tags": {"is_in": "Auroville", "name": "Discipline", "place": "neighbourhood"}}, {"type": "node", "id": 582987427, "lat": 12.0227714, "lon": 79.809747, "tags": {"is_in": "Auroville", "name": "Nine Palms", "place": "neighbourhood"}}, {"type": "node", "id": 712969459, "lat": 12.0106332, "lon": 79.8109102, "tags": {"is_in": "Auroville", "name": "Joy", "place": "neighbourhood"}}, {"type": "node", "id": 734840175, "lat": 12.0128942, "lon": 79.8114475, "tags": {"is_in": "Auroville", "place": "neighbourhood"}}, {"type": "node", "id": 734840218, "lat": 12.0140938, "lon": 79.813904, "tags": {"is_in": "Auroville", "name": "Revelation Forest", "place": "neighbourhood"}}, {"type": "node", "id": 734849969, "lat": 12.0114804, "lon": 79.8114499, "tags": {"is_in": "Auroville", "name": "Bliss Forest", "place": "neighbourhood"}}, {"type": "node", "id": 804984193, "lat": 12.0139225, "lon": 79.8117372, "tags": {"is_in": "Auroville", "name": "Sve Dame", "place": "neighbourhood"}}, {"type": "node", "id": 1024711895, "lat": 12.0018471, "lon": 79.8097143, "tags": {"is_in": "Auroville", "place": "neighbourhood"}}, {"type": "node", "id": 1027538864, "lat": 12.0166884, "lon": 79.8108484, "tags": {"is_in": "Auroville", "name": "Auromode", "place": "neighbourhood"}}, {"type": "node", "id": 1080593355, "lat": 11.9147104, "lon": 79.8241099, "tags": {"name": "Harbour", "name:fr": "Havre", "name:ta": "\u0ba4\u0bc1\u0bb1\u0bc8\u0bae\u0bc1\u0b95\u0bae\u0bcd", "place": "suburb"}}, {"type": "node", "id": 1108695441, "lat": 12.0014725, "lon": 79.8209453, "tags": {"is_in": "Auroville", "name": "Sangha", "place": "neighbourhood"}}, {"type": "node", "id": 1321442481, "lat": 12.0017024, "lon": 79.8147094, "tags": {"is_in": "Auroville", "name": "Realization", "place": "neighbourhood"}}, {"type": "node", "id": 1350977792, "lat": 12.0022486, "lon": 79.8086685, "tags": {"is_in": "Auroville", "name": "Centre Field", "place": "neighbourhood"}}, {"type": "node", "id": 1535284364, "lat": 12.0073015, "lon": 79.8251971, "tags": {"is_in": "Auroville", "name": "Samriddhi", "place": "neighbourhood"}}, {"type": "node", "id": 1546961600, "lat": 12.004586, "lon": 79.8180896, "tags": {"is_in": "Auroville", "name": "Grace", "place": "neighbourhood"}}, {"type": "node", "id": 1551778784, "lat": 12.0031889, "lon": 79.8046429, "tags": {"is_in": "Auroville", "name": "Harmony Centre", "place": "neighbourhood"}}, {"type": "node", "id": 1672666120, "lat": 12.0150931, "lon": 79.79971, "tags": {"is_in": "Auroville", "name": "Windarra Farm / Terrasoul", "place": "neighbourhood"}}, {"type": "node", "id": 1690133297, "lat": 11.9945644, "lon": 79.8430208, "tags": {"is_in": "Auroville", "name": "Felicity", "place": "neighbourhood"}}, {"type": "node", "id": 1690207082, "lat": 11.9852953, "lon": 79.7903209, "tags": {"is_in": "Auroville", "name": "Auro-Orchard", "place": "neighbourhood"}}, {"type": "node", "id": 1690207087, "lat": 11.9868425, "lon": 79.7892208, "tags": {"is_in": "Auroville", "name": "AuroAnnam", "place": "neighbourhood"}}, {"type": "node", "id": 1690207091, "lat": 11.9873979, "lon": 79.7846632, "tags": {"is_in": "Auroville", "name": "Aurobrindavan", "place": "neighbourhood"}}, {"type": "node", "id": 1690207101, "lat": 11.9855512, "lon": 79.7929253, "tags": {"is_in": "Auroville", "name": "Hope", "place": "neighbourhood"}}, {"type": "node", "id": 1690251713, "lat": 12.0047373, "lon": 79.8213768, "tags": {"is_in": "Auroville", "name": "Anusuya", "place": "neighbourhood"}}, {"type": "node", "id": 1690251729, "lat": 12.0175309, "lon": 79.8080484, "tags": {"is_in": "Auroville", "name": "Auroshilpam", "place": "neighbourhood"}}, {"type": "node", "id": 1690251761, "lat": 12.0109962, "lon": 79.8111563, "tags": {"is_in": "Auroville", "name": "Bliss", "place": "neighbourhood"}}, {"type": "node", "id": 1690251776, "lat": 12.0131962, "lon": 79.8205365, "tags": {"is_in": "Auroville", "name": "Dana", "place": "neighbourhood"}}, {"type": "node", "id": 1690251800, "lat": 12.0169969, "lon": 79.8209059, "tags": {"is_in": "Auroville", "name": "Baraka", "place": "neighbourhood"}}, {"type": "node", "id": 1690251806, "lat": 12.0170738, "lon": 79.8274129, "tags": {"is_in": "Auroville", "name": "Fertile", "place": "neighbourhood"}}, {"type": "node", "id": 1690251848, "lat": 12.0033879, "lon": 79.8186745, "tags": {"is_in": "Auroville", "name": "Madhuca", "place": "neighbourhood"}}, {"type": "node", "id": 1690251864, "lat": 12.0232463, "lon": 79.8048939, "tags": {"is_in": "Auroville", "name": "Martuvam Healing Forest", "place": "neighbourhood"}}, {"type": "node", "id": 1690251871, "lat": 11.9950813, "lon": 79.8229394, "tags": {"is_in": "Auroville", "name": "Pitchandikulam Forest", "place": "neighbourhood"}}, {"type": "node", "id": 1690254177, "lat": 12.0161002, "lon": 79.8114079, "tags": {"is_in": "Auroville", "name": "Revelation", "place": "neighbourhood"}}, {"type": "node", "id": 1690254180, "lat": 12.004935, "lon": 79.8251467, "tags": {"is_in": "Auroville", "name": "Samriddhi", "place": "neighbourhood"}}, {"type": "node", "id": 1690254191, "lat": 12.010657, "lon": 79.8090605, "tags": {"is_in": "Auroville", "name": "Sincerity", "place": "neighbourhood"}}, {"type": "node", "id": 1690254200, "lat": 12.0026725, "lon": 79.8190875, "tags": {"is_in": "Auroville", "name": "Sukhavati", "place": "neighbourhood"}}, {"type": "node", "id": 1690254220, "lat": 12.0029982, "lon": 79.8201697, "tags": {"is_in": "Auroville", "name": "Victory", "place": "neighbourhood"}}, {"type": "node", "id": 1841338813, "lat": 11.9187185, "lon": 79.6327485, "tags": {"name": "Madhagadipet", "name:ml": "\u0d2e\u0d24\u0d15\u0d1f\u0d3f\u0d2a\u0d4d\u0d2a\u0d1f\u0d4d\u0d1f\u0d4d", "name:ta": "\u0bae\u0ba4\u0b95\u0b9f\u0bbf\u0baa\u0bcd\u0baa\u0b9f\u0bcd\u0b9f\u0bc1", "place": "suburb"}}, {"type": "node", "id": 2376447939, "lat": 12.0002985, "lon": 79.8178911, "tags": {"is_in": "Auroville", "name": "Maitreye", "place": "neighbourhood"}}, {"type": "node", "id": 2634746012, "lat": 11.7452478, "lon": 79.7434359}, {"type": "node", "id": 2634746013, "lat": 11.7498202, "lon": 79.7438605}, {"type": "node", "id": 2634746014, "lat": 11.7500909, "lon": 79.7460071}, {"type": "node", "id": 2634746015, "lat": 11.7500726, "lon": 79.7521314}, {"type": "node", "id": 2634746016, "lat": 11.7443206, "lon": 79.7560925}, {"type": "node", "id": 2634746017, "lat": 11.743508, "lon": 79.7525213}, {"type": "node", "id": 2634746018, "lat": 11.7417163, "lon": 79.7427547}, {"type": "node", "id": 2634746019, "lat": 11.7414588, "lon": 79.7523239}, {"type": "node", "id": 2634751906, "lat": 11.7496023, "lon": 79.7533468}, {"type": "node", "id": 2634751908, "lat": 11.7481565, "lon": 79.7544756}, {"type": "node", "id": 2634751910, "lat": 11.743711, "lon": 79.7550487}, {"type": "node", "id": 3195672161, "lat": 12.026482, "lon": 79.820036, "tags": {"name": "Kamataru", "name:en": "Kamataru", "place": "neighbourhood"}}, {"type": "node", "id": 3632782165, "lat": 11.9313789, "lon": 79.8018344}, {"type": "node", "id": 3636652022, "lat": 11.9567295, "lon": 79.8281206, "tags": {"name": "Karuvadikuppam", "name:ml": "\u0d15\u0d30\u0d41\u0d35\u0d1f\u0d3f\u0d15\u0d4d\u0d15\u0d41\u0d2a\u0d4d\u0d2a\u0d02", "name:ta": "\u0b95\u0bb0\u0bc1\u0bb5\u0b9f\u0bbf\u0b95\u0bcd\u0b95\u0bc1\u0baa\u0bcd\u0baa\u0bae\u0bcd", "place": "suburb"}}, {"type": "node", "id": 3636974447, "lat": 11.9546226, "lon": 79.8119343, "tags": {"name": "Lawspet", "name:en": "Lawspet", "name:ml": "\u0d32\u0d4b\u0d38\u0d4d\u200c\u0d2a\u0d47\u0d1f\u0d4d\u0d1f", "name:ta": "\u0bb2\u0bbe\u0bb8\u0bcd\u0baa\u0bc7\u0b9f\u0bcd\u0b9f\u0bc8", "place": "suburb"}}, {"type": "node", "id": 3638864563, "lat": 11.8948712, "lon": 79.8075867, "tags": {"name": "Ariyankuppam", "name:ml": "\u0d05\u0d30\u0d3f\u0d2f\u0d3e\u0d19\u0d4d\u0d15\u0d41\u0d2a\u0d4d\u0d2a\u0d02", "name:ta": "\u0b85\u0bb0\u0bbf\u0baf\u0bbe\u0b99\u0bcd\u0b95\u0bc1\u0baa\u0bcd\u0baa\u0bae\u0bcd", "place": "suburb"}}, {"type": "node", "id": 3638864565, "lat": 11.9178044, "lon": 79.8119484, "tags": {"name": "Mudaliarpet", "name:ml": "\u0d2e\u0d41\u0d24\u0d32\u0d3f\u0d2f\u0d3e\u0d7c\u0d2a\u0d47\u0d1f\u0d4d\u0d1f", "name:ta": "\u0bae\u0bc1\u0ba4\u0bb2\u0bbf\u0baf\u0bbe\u0bb0\u0bcd\u0baa\u0bc7\u0b9f\u0bcd\u0b9f\u0bc8", "place": "suburb"}}, {"type": "node", "id": 3639591494, "lat": 11.9488099, "lon": 79.796179, "tags": {"name": "Dhanvantari Nagar", "name:ta": "\u0ba4\u0ba9\u0bcd\u0bb5\u0ba8\u0bcd\u0ba4\u0bb0\u0bbf \u0ba8\u0b95\u0bb0\u0bcd", "place": "suburb"}}, {"type": "node", "id": 3639591495, "lat": 11.936527, "lon": 79.8296109, "tags": {"name": "Grand Bazaar", "name:ml": "\u0d2a\u0d46\u0d30\u0d3f\u0d2f\u0d15\u0d1f", "name:ta": "\u0baa\u0bc6\u0bb0\u0bbf\u0baf\u0b95\u0b9f\u0bc8", "place": "suburb"}}, {"type": "node", "id": 3639591496, "lat": 11.9407413, "lon": 79.7865038, "tags": {"name": "Mettupalayam", "name:ta": "\u0bae\u0bc7\u0b9f\u0bcd\u0b9f\u0bc1\u0baa\u0bcd\u0baa\u0bbe\u0bb3\u0bc8\u0baf\u0bae\u0bcd", "place": "suburb"}}, {"type": "node", "id": 3639591497, "lat": 11.9292854, "lon": 79.828295, "tags": {"name": "Odiansalai", "name:ml": "\u0d12\u0d24\u0d3f\u0d2f\u0d7b\u0d38\u0d3e\u0d32\u0d48", "name:ta": "\u0b92\u0ba4\u0bbf\u0baf\u0ba9\u0bcd\u0b9a\u0bbe\u0bb2\u0bc8", "place": "suburb"}}, {"type": "node", "id": 3639591499, "lat": 11.9289108, "lon": 79.7949611, "tags": {"name": "Reddiarpalayam", "name:ml": "\u0d31\u0d46\u0d21\u0d4d\u0d21\u0d3f\u0d2f\u0d3e\u0d7c\u0d2a\u0d3e\u0d33\u0d2f\u0d02", "name:ta": "\u0bb0\u0bc6\u0b9f\u0bcd\u0b9f\u0bbf\u0baf\u0bbe\u0bb0\u0bcd\u0baa\u0bbe\u0bb3\u0bc8\u0baf\u0bae\u0bcd", "place": "suburb"}}, {"type": "node", "id": 3870441758, "lat": 11.7470293, "lon": 79.7650969, "tags": {"name": "Pudupalayam", "name:ta": "\u0baa\u0bc1\u0ba4\u0bc1\u0baa\u0bcd\u0baa\u0bbe\u0bb3\u0bc8\u0baf\u0bae\u0bcd", "place": "suburb", "postal_code": "607001"}}, {"type": "node", "id": 3870441760, "lat": 11.7493362, "lon": 79.7765403, "tags": {"name": "Vannarapalayam", "place": "suburb", "postal_code": "607001"}}, {"type": "node", "id": 3870441761, "lat": 11.7441576, "lon": 79.7716959, "tags": {"name": "Vanniyarpalayam", "place": "suburb", "postal_code": "607001"}}, {"type": "node", "id": 3870447062, "lat": 11.7487369, "lon": 79.7195717, "tags": {"name": "Kumara Pettai", "place": "suburb"}}, {"type": "node", "id": 3870447063, "lat": 11.7464983, "lon": 79.7326545, "tags": {"name": "Padhirikuppam", "place": "suburb", "postal_code": "607002"}}, {"type": "node", "id": 3870447064, "lat": 11.747309, "lon": 79.7472617, "tags": {"name": "Thiruppapuliyur", "name:ml": "\u0d24\u0d3f\u0d30\u0d41\u0d2a\u0d4d\u0d2a\u0d3e\u0d24\u0d3f\u0d30\u0d3f\u0d2a\u0d4d\u0d2a\u0d41\u0d32\u0d3f\u0d2f\u0d42\u0d7c", "name:ta": "\u0ba4\u0bbf\u0bb0\u0bc1\u0baa\u0bcd\u0baa\u0bbe\u0ba4\u0bbf\u0bb0\u0bbf\u0baa\u0bcd\u0baa\u0bc1\u0bb2\u0bbf\u0baf\u0bc2\u0bb0\u0bcd", "place": "suburb", "postal_code": "607002"}}, {"type": "node", "id": 3870447065, "lat": 11.7474775, "lon": 79.7099683, "tags": {"name": "Thiruvandhipuram", "place": "suburb"}}, {"type": "node", "id": 3881701858, "lat": 11.7535895, "lon": 79.7472489, "tags": {"name": "Kammiyampettai", "name:ta": "\u0b95\u0bae\u0bcd\u0bae\u0bbf\u0baf\u0bbe\u0bae\u0bcd\u0baa\u0bc7\u0b9f\u0bcd\u0b9f\u0bc8", "old_name": "Cumming's Pet", "place": "suburb", "postal_code": "607002"}}, {"type": "node", "id": 3881701859, "lat": 11.7615651, "lon": 79.7634606, "tags": {"name": "Manjakuppam", "name:ta": "\u0bae\u0b9e\u0bcd\u0b9a\u0b95\u0bc1\u0baa\u0bcd\u0baa\u0bae\u0bcd", "place": "suburb", "postal_code": "607001"}}, {"type": "node", "id": 3881701860, "lat": 11.7647483, "lon": 79.749938, "tags": {"name": "Semmandalam", "name:ta": "\u0b9a\u0bc6\u0bae\u0bcd\u0bae\u0ba3\u0bcd\u0b9f\u0bb2\u0bae\u0bcd", "place": "suburb", "postal_code": "607001"}}, {"type": "node", "id": 3881701861, "lat": 11.730867, "lon": 79.7492848, "tags": {"name": "Vandipalayam", "name:ta": "\u0bb5\u0ba3\u0bcd\u0b9f\u0bbf\u0baa\u0bcd\u0baa\u0bbe\u0bb3\u0bc8\u0baf\u0bae\u0bcd", "place": "suburb"}}, {"type": "node", "id": 3882992338, "lat": 11.7668321, "lon": 79.7380461, "tags": {"name": "Chavadi", "name:ta": "\u0b9a\u0bbe\u0bb5\u0b9f\u0bbf", "place": "suburb"}}, {"type": "node", "id": 3882994402, "lat": 11.7611762, "lon": 79.7579607, "tags": {"name": "Vilvarayanatham", "place": "suburb"}}, {"type": "node", "id": 3885938706, "lat": 11.7521208, "lon": 79.7604793, "tags": {"alt_name": "Cuddalore N.T.", "name": "New Town", "name:ta": "\u0b95\u0b9f\u0bb2\u0bc2\u0bb0\u0bcd \u0baa\u0bc1\u0ba4\u0bbf\u0baf \u0ba8\u0b95\u0bb0\u0bae\u0bcd", "place": "suburb"}}, {"type": "node", "id": 3903184156, "lat": 12.0105642, "lon": 79.8121536, "tags": {"is_in": "Auroville", "name": "Citadines", "place": "neighbourhood"}}, {"type": "node", "id": 3903349146, "lat": 11.9999399, "lon": 79.8037653, "tags": {"is_in": "Auroville", "name": "Sacred Groves", "place": "neighbourhood", "website": "http://sacredgroves.in"}}, {"type": "node", "id": 3956160673, "lat": 11.9950634, "lon": 79.830483, "tags": {"is_in": "Auroville", "name": "New Creation Field", "place": "neighbourhood", "website": "http://bon-auroville.com"}}, {"type": "node", "id": 3972936560, "lat": 12.0158589, "lon": 79.8062822, "tags": {"name": "V\u00e9rit\u00e9", "place": "neighbourhood", "website": "https://www.verite.in/"}}, {"type": "node", "id": 4023981451, "lat": 12.0133868, "lon": 79.8594642, "tags": {"is_in": "Auroville", "name": "Sri Ma", "operator": "Auroville", "place": "neighbourhood"}}, {"type": "node", "id": 4024150393, "lat": 11.9760016, "lon": 79.8448541, "tags": {"name": "Quiet", "operator": "Auroville", "place": "neighbourhood"}}, {"type": "node", "id": 4043590404, "lat": 11.7415746, "lon": 79.7523351}, {"type": "node", "id": 4043590405, "lat": 11.7415982, "lon": 79.7463033}, {"type": "node", "id": 4043590406, "lat": 11.7415864, "lon": 79.7461836}, {"type": "node", "id": 4043590408, "lat": 11.7416172, "lon": 79.7467131}, {"type": "node", "id": 4046167768, "lat": 11.7423605, "lon": 79.742879}, {"type": "node", "id": 5051302123, "lat": 12.003552, "lon": 79.8313006, "tags": {"name": "Udumbu", "name:ta": "\u0b89\u0b9f\u0bc1\u0bae\u0bcd\u0baa\u0bc1", "place": "neighbourhood"}}, {"type": "node", "id": 5149401421, "lat": 12.0201515, "lon": 79.8235458, "tags": {"name": "Fertile Field", "name:en": "Fertile Field", "place": "neighbourhood"}}, {"type": "node", "id": 5268622817, "lat": 11.9306851, "lon": 79.7838563, "tags": {"name": "Moolakulam", "name:ml": "\u0d2e\u0d42\u0d32\u0d15\u0d41\u0d33\u0d02", "name:ta": "\u0bae\u0bc2\u0bb2\u0b95\u0bc1\u0bb3\u0bae\u0bcd", "place": "suburb"}}, {"type": "node", "id": 5294938296, "lat": 11.9397249, "lon": 79.8177792, "tags": {"name": "Brindavanam", "name:ml": "\u0d2c\u0d43\u0d28\u0d4d\u0d26\u0d3e\u0d35\u0d28\u0d02", "name:ta": "\u0baa\u0bbf\u0bb0\u0bc1\u0ba8\u0bcd\u0ba4\u0bbe\u0bb5\u0ba9\u0bae\u0bcd", "place": "suburb"}}, {"type": "node", "id": 5327855244, "lat": 11.956098, "lon": 79.8382923, "tags": {"name": "Solai Nagar", "name:ml": "\u0d38\u0d4b\u0d32\u0d48 \u0d28\u0d17\u0d7c", "name:ta": "\u0b9a\u0bcb\u0bb2\u0bc8 \u0ba8\u0b95\u0bb0\u0bcd", "place": "suburb"}}, {"type": "node", "id": 5354029087, "lat": 12.0095376, "lon": 79.8110256, "tags": {"name": "Town Hall", "place": "neighbourhood"}}, {"type": "node", "id": 5662526314, "lat": 11.9380184, "lon": 79.8009588, "tags": {"name": "Aaruthra Nagar", "name:ta": "\u0b86\u0bb0\u0bc1\u0ba4\u0bcd\u0bb0\u0bbe \u0ba8\u0b95\u0bb0\u0bcd", "place": "neighbourhood"}}, {"type": "node", "id": 5662526315, "lat": 11.9419544, "lon": 79.7999201, "tags": {"name": "Thilaspet", "name:ta": "\u0ba4\u0bbf\u0bb2\u0bbe\u0b9a\u0bc1\u0baa\u0bc7\u0b9f\u0bcd\u0b9f\u0bc8", "place": "suburb"}}, {"type": "node", "id": 5662554353, "lat": 11.9420585, "lon": 79.7946064, "tags": {"name": "Kathirkamam", "name:ta": "\u0b95\u0ba4\u0bbf\u0bb0\u0bcd\u0b95\u0bbe\u0bae\u0bae\u0bcd", "place": "suburb"}}, {"type": "node", "id": 5662572537, "lat": 11.9535324, "lon": 79.7936091, "tags": {"name": "Gorimedu", "name:ta": "\u0b95\u0bcb\u0bb0\u0bbf\u0bae\u0bc7\u0b9f\u0bc1", "place": "suburb"}}, {"type": "node", "id": 5668534979, "lat": 11.9517574, "lon": 79.8343629, "tags": {"name": "Muthialpet", "name:ml": "\u0d2e\u0d41\u0d24\u0d4d\u0d24\u0d3f\u0d2f\u0d3e\u0d7d\u0d2a\u0d47\u0d1f\u0d4d\u0d1f", "name:ta": "\u0bae\u0bc1\u0ba4\u0bcd\u0ba4\u0bbf\u0baf\u0bbe\u0bb2\u0bcd\u0baa\u0bc7\u0b9f\u0bcd\u0b9f\u0bc8", "place": "suburb"}}, {"type": "node", "id": 5668534980, "lat": 11.9496135, "lon": 79.8221326, "tags": {"name": "Krishna Nagar", "name:ta": "\u0b95\u0bbf\u0bb0\u0bc1\u0bb7\u0bcd\u0ba3\u0bbe \u0ba8\u0b95\u0bb0\u0bcd", "place": "suburb"}}, {"type": "node", "id": 5668534981, "lat": 11.94415, "lon": 79.8250456, "tags": {"name": "Rainbow Nagar", "name:ta": "\u0bb0\u0bc6\u0baf\u0bbf\u0ba9\u0bcd\u0baa\u0bcb \u0ba8\u0b95\u0bb0\u0bcd", "place": "suburb"}}, {"type": "node", "id": 7082552149, "lat": 12.0217346, "lon": 79.8192305, "tags": {"name": "NFA", "name:en": "NFA", "place": "neighbourhood"}}, {"type": "node", "id": 8661349788, "lat": 11.9683008, "lon": 79.7935456, "tags": {"name": "Pattanur", "name:ml": "\u0d2a\u0d1f\u0d4d\u0d1f\u0d28\u0d42\u0d7c", "name:ta": "\u0baa\u0b9f\u0bcd\u0b9f\u0ba9\u0bc2\u0bb0\u0bcd", "place": "suburb"}}, {"type": "node", "id": 9212324205, "lat": 11.7696284, "lon": 79.7447366, "tags": {"name": "Jothi Nagar", "name:ta": "\u0b9c\u0bcb\u0ba4\u0bbf \u0ba8\u0b95\u0bb0\u0bcd", "place": "neighbourhood"}}, {"type": "node", "id": 9212324206, "lat": 11.7715999, "lon": 79.7455242, "tags": {"name": "Thirunagar", "name:ta": "\u0ba4\u0bbf\u0bb0\u0bc1\u0ba8\u0b95\u0bb0\u0bcd", "place": "neighbourhood"}}, {"type": "node", "id": 9212324207, "lat": 11.7674564, "lon": 79.7445174, "tags": {"name": "Friends Nagar", "name:ta": "\u0ba8\u0ba3\u0bcd\u0baa\u0bb0\u0bcd\u0b95\u0bb3\u0bcd \u0ba8\u0b95\u0bb0\u0bcd", "place": "neighbourhood"}}, {"type": "node", "id": 9751348512, "lat": 11.9330854, "lon": 79.7992624}, {"type": "node", "id": 9818721578, "lat": 12.0452106, "lon": 79.8725558, "tags": {"name": "Hollywood Farm Beach", "place": "neighbourhood"}}, {"type": "node", "id": 10687634255, "lat": 11.7548674, "lon": 79.7741103, "tags": {"name": "Anakuppam", "place": "suburb"}}, {"type": "node", "id": 11124188410, "lat": 12.0114964, "lon": 79.8187801, "tags": {"name": "Devashakti", "place": "neighbourhood"}}, {"type": "node", "id": 11975219610, "lat": 11.9312104, "lon": 79.799194}, {"type": "node", "id": 11975219611, "lat": 11.9328997, "lon": 79.8017311}, {"type": "node", "id": 12086939243, "lat": 11.7129542, "lon": 79.7772877, "tags": {"name": "Akkarai Gori", "place": "suburb"}}, {"type": "node", "id": 12086961341, "lat": 11.715058, "lon": 79.7748529, "tags": {"name": "Cuddalore Old Town Harbour", "place": "suburb"}}, {"type": "way", "id": 258046611, "nodes": [2634746012, 2634746013, 2634746014, 2634746015, 2634751906, 2634751908, 2634746016, 2634751910, 2634746017, 4043590404, 2634746019, 4043590408, 4043590405, 4043590406, 2634746018, 4046167768, 2634746012], "tags": {"name": "Thiruppapuliyur", "name:ta": "\u0ba4\u0bbf\u0bb0\u0bc1\u0baa\u0bcd\u0baa\u0bbe\u0baa\u0bc1\u0bb2\u0bbf\u0baf\u0bc2\u0bb0\u0bcd", "place": "suburb"}}, {"type": "way", "id": 1291737391, "nodes": [9751348512, 11975219610, 3632782165, 11975219611, 9751348512], "tags": {"name": "Ajees Nagar", "name:ta": "\u0b85\u0b9c\u0bbf\u0bb8\u0bcd \u0ba8\u0b95\u0bb0\u0bcd", "place": "neighbourhood"}}]}