{"version": 0.6, "generator": "Overpass API 0.7.62.4 2390de5a", "osm3s": {"timestamp_osm_base": "2025-01-04T11:37:15Z", "copyright": "The data included in this document is from www.openstreetmap.org. The data is made available under ODbL."}, "elements": [{"type": "node", "id": 540535251, "lat": 11.4358841, "lon": 77.6753818, "tags": {"is_in": "Bhavani", "name": "Kalingarayanpalayam", "place": "suburb"}}, {"type": "node", "id": 540535253, "lat": 11.4298748, "lon": 77.6748562, "tags": {"is_in": "Bhavani", "name": "Lakshmi Nagar", "place": "suburb"}}, {"type": "node", "id": 1888222800, "lat": 11.3485673, "lon": 77.7119662, "tags": {"name": "Veerappanchatiram", "place": "suburb"}}, {"type": "node", "id": 2085523155, "lat": 11.3231668, "lon": 77.6721263, "tags": {"name": "Mahakavi Bharathiyar Nagar", "place": "neighbourhood"}}, {"type": "node", "id": 2085718457, "lat": 11.3272352, "lon": 77.6739523, "tags": {"name": "Maruti Nagar", "place": "neighbourhood"}}, {"type": "node", "id": 4172379211, "lat": 11.3348775, "lon": 77.7008482, "tags": {"name": "Kumalankuttai", "place": "suburb"}}, {"type": "node", "id": 4172411757, "lat": 11.3380754, "lon": 77.7075216, "tags": {"name": "Sampath Nagar", "place": "suburb"}}, {"type": "node", "id": 4172411932, "lat": 11.3322055, "lon": 77.7063414, "tags": {"name": "Teachers Colony", "place": "suburb"}}, {"type": "node", "id": 4172412164, "lat": 11.3364975, "lon": 77.7045604, "tags": {"name": "New Teachers Colony", "place": "suburb"}}, {"type": "node", "id": 4172412326, "lat": 11.3281764, "lon": 77.6977047, "tags": {"name": "Palayapalayam", "place": "suburb"}}, {"type": "node", "id": 4172413010, "lat": 11.3288602, "lon": 77.7031657, "tags": {"name": "Sangu Nagar", "place": "suburb"}}, {"type": "node", "id": 4172414243, "lat": 11.3233267, "lon": 77.7049037, "tags": {"name": "Surampatti Valasu", "place": "suburb"}}, {"type": "node", "id": 4172417063, "lat": 11.3278082, "lon": 77.7107402, "tags": {"name": "Surampatti", "name:ta": "\u0b9a\u0bc2\u0bb0\u0bae\u0bcd\u0baa\u0b9f\u0bcd\u0b9f\u0bbf", "place": "suburb"}}, {"type": "node", "id": 4172431082, "lat": 11.3318665, "lon": 77.6867255, "tags": {"name": "Verappampalayam", "place": "suburb"}}, {"type": "node", "id": 4172431493, "lat": 11.3260584, "lon": 77.6854416, "tags": {"name": "Sengodampalayam", "place": "suburb"}}, {"type": "node", "id": 4172436111, "lat": 11.3222291, "lon": 77.6835963, "tags": {"name": "Sakthi Nagar", "place": "suburb"}}, {"type": "node", "id": 4172439307, "lat": 11.306112, "lon": 77.6990243, "tags": {"name": "Rangampalayam", "place": "suburb"}}, {"type": "node", "id": 4172440698, "lat": 11.3106569, "lon": 77.7050969, "tags": {"name": "K.K.Nagar", "place": "suburb"}}, {"type": "node", "id": 5042640458, "lat": 11.3194291, "lon": 77.7519875, "tags": {"name": "Solar", "place": "suburb"}}, {"type": "node", "id": 12384411437, "lat": 11.367179, "lon": 77.7689209, "tags": {"name": "Govindampalayam", "place": "suburb", "population": "535", "source:name": "pmgsy", "source:population": "pmgsy"}}, {"type": "node", "id": 12384411438, "lat": 11.3630645, "lon": 77.7680621, "tags": {"name": "Alampalayam East", "place": "suburb", "population": "390", "source:name": "pmgsy", "source:population": "pmgsy"}}, {"type": "node", "id": 12384411439, "lat": 11.3565437, "lon": 77.776111, "tags": {"name": "Taj Nagar", "place": "suburb", "population": "2267", "source:name": "pmgsy", "source:population": "pmgsy"}}, {"type": "node", "id": 12384411440, "lat": 11.3501631, "lon": 77.7727223, "tags": {"name": "Ganapathi Nagar", "place": "suburb", "population": "342", "source:name": "pmgsy", "source:population": "pmgsy"}}, {"type": "node", "id": 12384411441, "lat": 11.3537222, "lon": 77.7674598, "tags": {"name": "Kattur", "place": "suburb", "population": "565", "source:name": "pmgsy", "source:population": "pmgsy"}}, {"type": "node", "id": 12384411442, "lat": 11.3573228, "lon": 77.7539567, "tags": {"name": "Periyakadu", "place": "suburb", "population": "1433", "source:name": "pmgsy", "source:population": "pmgsy"}}, {"type": "node", "id": 12384411443, "lat": 11.373891, "lon": 77.757115, "tags": {"name": "Vediarasampalayam", "place": "suburb", "population": "1103", "source:name": "pmgsy", "source:population": "pmgsy"}}, {"type": "node", "id": 12384411444, "lat": 11.3776218, "lon": 77.7555071, "tags": {"name": "Poolakattur", "place": "suburb", "population": "2673", "source:name": "pmgsy", "source:population": "pmgsy"}}, {"type": "node", "id": 12384411445, "lat": 11.3757135, "lon": 77.7405181, "tags": {"name": "Kottakadu", "place": "suburb", "population": "1080", "source:name": "pmgsy", "source:population": "pmgsy"}}, {"type": "node", "id": 12384411446, "lat": 11.3763684, "lon": 77.7363604, "tags": {"name": "Avathipalayam", "place": "suburb", "population": "3331", "source:name": "pmgsy", "source:population": "pmgsy"}}, {"type": "node", "id": 12384411447, "lat": 11.35475, "lon": 77.75543, "tags": {"name": "Vasanthanagar", "place": "suburb", "population": "437", "source:name": "pmgsy", "source:population": "pmgsy"}}, {"type": "node", "id": 12384411448, "lat": 11.35231, "lon": 77.75753, "tags": {"name": "Rajaji Nagar", "place": "suburb", "population": "493", "source:name": "pmgsy", "source:population": "pmgsy"}}, {"type": "node", "id": 12384411449, "lat": 11.35282, "lon": 77.76984, "tags": {"name": "Ragavanatham Nagar", "place": "suburb", "population": "578", "source:name": "pmgsy", "source:population": "pmgsy"}}, {"type": "node", "id": 12384411450, "lat": 11.35945, "lon": 77.7623, "tags": {"name": "Puliankadu", "place": "suburb", "population": "442", "source:name": "pmgsy", "source:population": "pmgsy"}}, {"type": "node", "id": 12384411451, "lat": 11.35562, "lon": 77.76473, "tags": {"name": "Pudupalayam", "place": "suburb", "population": "1115", "source:name": "pmgsy", "source:population": "pmgsy"}}, {"type": "node", "id": 12384411452, "lat": 11.3764, "lon": 77.74831, "tags": {"name": "Pallipalayam Agraharam", "place": "suburb", "population": "1843", "source:name": "pmgsy", "source:population": "pmgsy"}}, {"type": "node", "id": 12384411453, "lat": 11.37116, "lon": 77.74876, "tags": {"name": "Ottanmethai", "place": "suburb", "population": "1200", "source:name": "pmgsy", "source:population": "pmgsy"}}, {"type": "node", "id": 12384411454, "lat": 11.35407, "lon": 77.76476, "tags": {"name": "Kumarappa Nagar", "place": "suburb", "population": "294", "source:name": "pmgsy", "source:population": "pmgsy"}}, {"type": "node", "id": 12384411455, "lat": 11.3822601, "lon": 77.7407792, "tags": {"name": "Barathinagar", "place": "suburb", "population": "247", "source:name": "pmgsy", "source:population": "pmgsy"}}, {"type": "node", "id": 12384411456, "lat": 11.3843638, "lon": 77.7416626, "tags": {"name": "Karattankadu", "place": "suburb", "population": "480", "source:name": "pmgsy", "source:population": "pmgsy"}}, {"type": "node", "id": 12384411457, "lat": 11.4048497, "lon": 77.7656025, "tags": {"name": "Thandankadu", "place": "suburb", "population": "339", "source:name": "pmgsy", "source:population": "pmgsy"}}, {"type": "node", "id": 12384411458, "lat": 11.4096117, "lon": 77.7643254, "tags": {"name": "Ottankadu", "place": "suburb", "population": "120", "source:name": "pmgsy", "source:population": "pmgsy"}}, {"type": "node", "id": 12384411459, "lat": 11.4223638, "lon": 77.7704127, "tags": {"name": "Pethakattur", "place": "suburb", "population": "230", "source:name": "pmgsy", "source:population": "pmgsy"}}, {"type": "node", "id": 12384411460, "lat": 11.4161359, "lon": 77.7705958, "tags": {"name": "Ranganur Ar", "place": "suburb", "population": "497", "source:name": "pmgsy", "source:population": "pmgsy"}}, {"type": "node", "id": 12384411461, "lat": 11.4147531, "lon": 77.7691752, "tags": {"name": "Ranganur Hindu", "place": "suburb", "population": "823", "source:name": "pmgsy", "source:population": "pmgsy"}}, {"type": "node", "id": 12384411462, "lat": 11.4164162, "lon": 77.7642361, "tags": {"name": "Pudukadu Naicker street", "place": "suburb", "population": "480", "source:name": "pmgsy", "source:population": "pmgsy"}}, {"type": "node", "id": 12384411463, "lat": 11.4092212, "lon": 77.7573643, "tags": {"name": "Kattipalayam", "place": "suburb", "population": "559", "source:name": "pmgsy", "source:population": "pmgsy"}}, {"type": "node", "id": 12384411464, "lat": 11.41255, "lon": 77.77355, "tags": {"name": "Shanmugan kadu", "place": "suburb", "population": "384", "source:name": "pmgsy", "source:population": "pmgsy"}}, {"type": "node", "id": 12384411465, "lat": 11.41598, "lon": 77.76593, "tags": {"name": "Ranganoor four road", "place": "suburb", "population": "187", "source:name": "pmgsy", "source:population": "pmgsy"}}, {"type": "node", "id": 12384411466, "lat": 11.41891, "lon": 77.76676, "tags": {"name": "E.Pudupalayam Ar.St.", "place": "suburb", "population": "389", "source:name": "pmgsy", "source:population": "pmgsy"}}, {"type": "node", "id": 12384411467, "lat": 11.41965, "lon": 77.76739, "tags": {"name": "E Pudupalayam", "place": "suburb", "population": "510", "source:name": "pmgsy", "source:population": "pmgsy"}}]}