{"version": 0.6, "generator": "Overpass API 0.7.62.4 2390de5a", "osm3s": {"timestamp_osm_base": "2025-01-04T11:37:15Z", "copyright": "The data included in this document is from www.openstreetmap.org. The data is made available under ODbL."}, "elements": [{"type": "node", "id": 308887964, "lat": 12.2817803, "lon": 76.5896165}, {"type": "node", "id": 659788572, "lat": 12.3414732, "lon": 76.585315, "tags": {"name": "Hutagalli", "name:kn": "\u0cb9\u0cc1\u0c9f\u0c97\u0cb3\u0ccd\u0cb3\u0cbf", "place": "suburb"}}, {"type": "node", "id": 1001763003, "lat": 12.3260989, "lon": 76.628297, "tags": {"is_in": "Mysore", "name": "Gokulam", "name:kn": "\u0c97\u0ccb\u0c95\u0cc1\u0cb2\u0c82", "place": "suburb"}}, {"type": "node", "id": 1001763005, "lat": 12.3297143, "lon": 76.6639671, "tags": {"is_in": "Mysore", "name": "Narasimharaja Mohalla", "name:en": "NR Mohalla", "name:kn": "\u0ca8\u0cb0\u0cb8\u0cbf\u0c82\u0cb9\u0cb0\u0cbe\u0c9c \u0cae\u0cca\u0cb9\u0cb2\u0ccd\u0cb2", "place": "suburb"}}, {"type": "node", "id": 1001763007, "lat": 12.3206667, "lon": 76.6806703, "tags": {"is_in": "Mysore", "name": "Kyathamaranahalli", "name:kn": "\u0c95\u0ccd\u0caf\u0cbe\u0ca4\u0cae\u0cbe\u0cb0\u0ca8\u0cb9\u0cb3\u0ccd\u0cb3\u0cbf", "place": "suburb"}}, {"type": "node", "id": 1001763009, "lat": 12.2877985, "lon": 76.6397794, "tags": {"is_in": "Mysore", "name": "Ashokapuram", "name:kn": "\u0c85\u0cb6\u0ccb\u0c95\u0caa\u0cc1\u0cb0\u0c82", "place": "suburb"}}, {"type": "node", "id": 1001763011, "lat": 12.327919, "lon": 76.6391525, "tags": {"is_in": "Mysore", "name": "Yadavagiri", "name:kn": "\u0caf\u0cbe\u0ca6\u0cb5\u0c97\u0cbf\u0cb0\u0cbf", "place": "suburb"}}, {"type": "node", "id": 1001763012, "lat": 12.3509126, "lon": 76.6113102, "tags": {"is_in": "Mysore", "name": "Hebbalu", "name:kn": "\u0cb9\u0cc6\u0cac\u0ccd\u0cac\u0cbe\u0cb3\u0cc1", "place": "suburb"}}, {"type": "node", "id": 1001763014, "lat": 12.2971517, "lon": 76.6707658, "tags": {"is_in": "Mysore", "name": "Race Course", "name:kn": "\u0cb0\u0cc7\u0cb8\u0ccd \u0c95\u0cca\u0cb0\u0ccd\u0cb8\u0ccd", "place": "suburb"}}, {"type": "node", "id": 1001763018, "lat": 12.3168718, "lon": 76.6539059, "tags": {"is_in": "Mysore", "name": "Mandi Mohalla", "name:kn": "\u0cae\u0c82\u0ca1\u0cbf \u0cae\u0cca\u0cb9\u0cb2\u0ccd\u0cb2", "place": "suburb"}}, {"type": "node", "id": 1001763020, "lat": 12.3397223, "lon": 76.6325119, "tags": {"is_in": "Mysore", "name": "Brindavan Extension", "name:kn": "\u0cac\u0cc3\u0c82\u0ca6\u0cbe\u0cb5\u0ca8 \u0cac\u0ca1\u0cbe\u0cb5\u0ca3\u0cc6", "place": "suburb"}}, {"type": "node", "id": 1001763022, "lat": 12.2988573, "lon": 76.6411087, "tags": {"is_in": "Mysore", "name": "Chamarajapuram", "name:kn": "\u0c9a\u0cbe\u0cae\u0cb0\u0cbe\u0c9c\u0caa\u0cc1\u0cb0\u0c82", "place": "suburb"}}, {"type": "node", "id": 1001763023, "lat": 12.2932511, "lon": 76.6404815, "tags": {"is_in": "Mysore", "name": "Krishnamurtipuram", "name:kn": "\u0c95\u0cc3\u0cb7\u0ccd\u0ca3\u0cae\u0cc2\u0cb0\u0ccd\u0ca4\u0cbf\u0caa\u0cc1\u0cb0\u0c82", "place": "suburb"}}, {"type": "node", "id": 1001763025, "lat": 12.3226718, "lon": 76.6649751, "tags": {"is_in": "Mysore", "name": "Gandhinagar", "name:kn": "\u0c97\u0cbe\u0c82\u0ca7\u0cbf\u0ca8\u0c97\u0cb0", "place": "suburb"}}, {"type": "node", "id": 1001766982, "lat": 12.3410563, "lon": 76.6662609, "tags": {"is_in": "Mysore", "name": "Rajendra Nagar", "name:kn": "\u0cb0\u0c9c\u0cc7\u0ca8\u0ccd\u0ca6\u0ccd\u0cb0\u0ca8\u0c97\u0cb0", "name:kn:iso15919": "Raj\u0113ndranagara", "place": "suburb"}}, {"type": "node", "id": 1001766987, "lat": 12.3176836, "lon": 76.5927692, "tags": {"is_in": "Mysore", "name": "Vijayanagara", "name:kn": "\u0cb5\u0cbf\u0c9c\u0caf\u0ca8\u0c97\u0cb0", "place": "suburb"}}, {"type": "node", "id": 1001766989, "lat": 12.2898051, "lon": 76.6287968, "tags": {"is_in": "Mysore", "name": "Kuvempunagara", "name:kn": "\u0c95\u0cc1\u0cb5\u0cc6\u0c82\u0caa\u0cc1\u0ca8\u0c97\u0cb0", "place": "suburb"}}, {"type": "node", "id": 1001766990, "lat": 12.3168777, "lon": 76.6757172, "tags": {"is_in": "Mysore", "name": "Gayathripuram", "name:kn": "\u0c97\u0cbe\u0caf\u0ca4\u0ccd\u0cb0\u0cbf\u0caa\u0cc1\u0cb0\u0c82", "place": "suburb"}}, {"type": "node", "id": 1001766992, "lat": 12.2655944, "lon": 76.6465404, "tags": {"is_in": "Mysore", "name": "JP Nagar", "name:kn": "\u0c9c\u0cc6\u0caa\u0cbf \u0ca8\u0c97\u0cb0", "place": "suburb"}}, {"type": "node", "id": 1001766994, "lat": 12.3250331, "lon": 76.6751327, "tags": {"is_in": "Mysore", "name": "Udayagiri", "name:kn": "\u0c89\u0ca6\u0caf\u0c97\u0cbf\u0cb0\u0cbf", "place": "suburb"}}, {"type": "node", "id": 1001766995, "lat": 12.3006471, "lon": 76.6298055, "tags": {"is_in": "Mysore", "name": "Sarasvatipuram", "name:kn": "\u0cb8\u0cb0\u0cb8\u0ccd\u0cb5\u0ca4\u0cbf\u0caa\u0cc1\u0cb0\u0c82", "place": "suburb"}}, {"type": "node", "id": 1001766996, "lat": 12.3006471, "lon": 76.5983895, "tags": {"is_in": "Mysore", "name": "Bogadi", "name:kn": "\u0cac\u0ccb\u0c97\u0cbe\u0ca6\u0cbf", "place": "suburb"}}, {"type": "node", "id": 1001769707, "lat": 12.3224157, "lon": 76.6217738, "tags": {"is_in": "Mysore", "name": "Jayalakshmipuram", "name:kn": "\u0c9c\u0caf\u0cb2\u0c95\u0ccd\u0cb7\u0ccd\u0cae\u0cc0\u0caa\u0cc1\u0cb0\u0c82", "place": "suburb"}}, {"type": "node", "id": 1001769709, "lat": 12.2701965, "lon": 76.6242663, "tags": {"is_in": "Mysore", "name": "Sriramapura", "name:kn": "\u0cb6\u0ccd\u0cb0\u0cc0\u0cb0\u0cbe\u0cae\u0caa\u0cc1\u0cb0", "place": "suburb"}}, {"type": "node", "id": 1001769725, "lat": 12.3015103, "lon": 76.6626872, "tags": {"is_in": "Mysore", "name": "Ittigegudu", "name:kn": "\u0c87\u0c9f\u0ccd\u0c9f\u0cbf\u0c97\u0cc6\u0c97\u0cc2\u0ca1\u0cc1", "place": "suburb"}}, {"type": "node", "id": 1001769727, "lat": 12.2908895, "lon": 76.6358373, "tags": {"is_in": "Mysore", "name": "Jayanagara", "name:kn": "\u0c9c\u0caf\u0ca8\u0c97\u0cb0", "place": "suburb"}}, {"type": "node", "id": 1001769729, "lat": 12.2991208, "lon": 76.6503888, "tags": {"is_in": "Mysore", "name": "Vani Vilas", "name:kn": "\u0cb5\u0cbe\u0ca3\u0cbf \u0cb5\u0cbf\u0cb2\u0cbe\u0cb8", "place": "suburb"}}, {"type": "node", "id": 1478012041, "lat": 12.2975827, "lon": 76.6851812, "tags": {"alt_name": "Kempu Cheluvajjamani Layout", "name": "K C Layout", "name:kn": "\u0c95\u0cc6 \u0cb8\u0cbf \u0cac\u0ca1\u0cbe\u0cb5\u0ca3\u0cc6", "place": "suburb"}}, {"type": "node", "id": 1478012141, "lat": 12.3093335, "lon": 76.6657534, "tags": {"name": "Nazarbad", "name:kn": "\u0ca8\u0c9c\u0cb0\u0cac\u0cbe\u0ca6\u0ccd", "place": "suburb"}}, {"type": "node", "id": 2513603261, "lat": 12.3299639, "lon": 76.6007405, "tags": {"name": "Hinkal", "name:kn": "\u0cb9\u0cbf\u0ca8\u0c95\u0cb2\u0ccd", "place": "suburb"}}, {"type": "node", "id": 2517553637, "lat": 12.3013245, "lon": 76.6955239, "tags": {"name": "Alanahalli", "name:kn": "\u0c85\u0cb2\u0ca8\u0cb9\u0cb3\u0ccd\u0cb3\u0cbf", "place": "neighbourhood"}}, {"type": "node", "id": 2612347561, "lat": 12.2776432, "lon": 76.6005474}, {"type": "node", "id": 2624350219, "lat": 12.402094, "lon": 76.444044, "tags": {"name": "Ayyara Halli", "name:kn": "\u0c85\u0caf\u0ccd\u0caf\u0cb0\u0cb9\u0cb3\u0ccd\u0cb3\u0cbf", "number": "809", "place": "suburb"}}, {"type": "node", "id": 3252918920, "lat": 12.2793953, "lon": 76.6004448}, {"type": "node", "id": 3371323466, "lat": 12.283386, "lon": 76.5891324}, {"type": "node", "id": 3371323467, "lat": 12.2832586, "lon": 76.5897994}, {"type": "node", "id": 3371323468, "lat": 12.2826551, "lon": 76.5906122}, {"type": "node", "id": 3371323469, "lat": 12.2819718, "lon": 76.5907911}, {"type": "node", "id": 3371323470, "lat": 12.2818129, "lon": 76.5891812}, {"type": "node", "id": 3371351576, "lat": 12.2743265, "lon": 76.6038725}, {"type": "node", "id": 3371351577, "lat": 12.2735297, "lon": 76.6066191}, {"type": "node", "id": 3371351578, "lat": 12.2737247, "lon": 76.6113047}, {"type": "node", "id": 3371351579, "lat": 12.2795053, "lon": 76.6098592}, {"type": "node", "id": 3371351580, "lat": 12.2799037, "lon": 76.6130135}, {"type": "node", "id": 3371351581, "lat": 12.2838454, "lon": 76.6111038}, {"type": "node", "id": 3371351583, "lat": 12.287808, "lon": 76.6054604}, {"type": "node", "id": 3371351584, "lat": 12.2868645, "lon": 76.6055677}, {"type": "node", "id": 3371351585, "lat": 12.287835, "lon": 76.599372}, {"type": "node", "id": 3371351586, "lat": 12.284097, "lon": 76.5997312}, {"type": "node", "id": 3531425358, "lat": 12.2750272, "lon": 76.6007045}, {"type": "node", "id": 3531425359, "lat": 12.2800521, "lon": 76.6003249}, {"type": "node", "id": 3630731835, "lat": 12.347751, "lon": 76.6298165, "tags": {"name": "Metagalli", "name:kn": "\u0cae\u0cc7\u0c9f\u0c97\u0cb3\u0ccd\u0cb3\u0cbf", "place": "suburb"}}, {"type": "node", "id": 3631848708, "lat": 12.3602331, "lon": 76.633949, "tags": {"name": "Metagalli Industrial Area", "name:kn": "\u0cae\u0cc6\u0c9f\u0c97\u0cb2\u0ccd\u0cb2\u0cbf \u0c95\u0cc8\u0c97\u0cbe\u0cb0\u0cbf\u0c95\u0cbe \u0caa\u0ccd\u0cb0\u0ca6\u0cc7\u0cb6", "place": "suburb"}}, {"type": "node", "id": 3658513370, "lat": 12.288051, "lon": 76.6072421}, {"type": "node", "id": 3946549006, "lat": 12.2973637, "lon": 76.699936, "tags": {"name": "Alanahalli", "name:kn": "\u0c86\u0cb2\u0ca8\u0cb9\u0cb3\u0ccd\u0cb3\u0cbf", "place": "suburb"}}, {"type": "node", "id": 3946549010, "lat": 12.3383044, "lon": 76.5725135, "tags": {"name": "Belavadi", "name:kn": "\u0cac\u0cc6\u0cb3\u0cb5\u0cbe\u0ca1\u0cbf", "place": "suburb"}}, {"type": "node", "id": 3946549027, "lat": 12.3529283, "lon": 76.5779653, "tags": {"name": "Kurgalli", "name:kn": "\u0c95\u0cc2\u0cb0\u0ccd\u0c97\u0cb3\u0ccd\u0cb3\u0cbf", "place": "suburb"}}, {"type": "node", "id": 4238947900, "lat": 12.291712, "lon": 76.6145526, "tags": {"name": "Ramakrishna Nagara", "name:kn": "\u0cb0\u0cbe\u0cae\u0c95\u0cc3\u0cb7\u0ccd\u0ca3\u0ca8\u0c97\u0cb0", "place": "suburb"}}, {"type": "node", "id": 4253074491, "lat": 12.3457868, "lon": 76.6264731, "tags": {"name": "Kumbara Koppalu", "name:kn": "\u0c95\u0cc1\u0c82\u0cac\u0cbe\u0cb0 \u0c95\u0cca\u0caa\u0ccd\u0caa\u0cb2\u0cc1", "place": "neighbourhood"}}, {"type": "node", "id": 4823540399, "lat": 12.2826608, "lon": 76.5898728, "tags": {"name": "Keragalli", "name:kn": "\u0c95\u0cc7\u0cb0\u0c97\u0cb3\u0ccd\u0cb3\u0cbf", "place": "neighbourhood"}}, {"type": "node", "id": 11067262831, "lat": 12.3700805, "lon": 76.5969801, "tags": {"name": "Emerald Enclave", "place": "neighbourhood"}}, {"type": "node", "id": 11067289632, "lat": 12.304448, "lon": 76.6820812, "tags": {"name": "Siddhartha Nagar", "place": "neighbourhood"}}, {"type": "node", "id": 11067289696, "lat": 12.3053547, "lon": 76.6716421, "tags": {"name": "Century Layout", "place": "neighbourhood"}}, {"type": "node", "id": 11523757753, "lat": 12.2762867, "lon": 76.6006289}, {"type": "way", "id": 330183011, "nodes": [3371323466, 3371323467, 3371323468, 3371323469, 308887964, 3371323470, 3371323466], "tags": {"name": "Keragalli", "name:kn": "\u0c95\u0cc7\u0cb0\u0c97\u0cb3\u0ccd\u0cb3\u0cbf", "place": "neighbourhood"}}, {"type": "way", "id": 330184074, "nodes": [3252918920, 2612347561, 11523757753, 3531425358, 3371351576, 3371351577, 3371351578, 3371351579, 3371351580, 3371351581, 3658513370, 3371351583, 3371351584, 3371351585, 3371351586, 3531425359, 3252918920], "tags": {"name": "Kanakadasanagara", "name:kn": "\u0c95\u0ca8\u0c95\u0ca6\u0cbe\u0cb8\u0ca8\u0c97\u0cb0", "place": "neighbourhood"}}]}