{"version": 0.6, "generator": "Overpass API 0.7.62.4 2390de5a", "osm3s": {"timestamp_osm_base": "2025-01-04T11:35:14Z", "copyright": "The data included in this document is from www.openstreetmap.org. The data is made available under ODbL."}, "elements": [{"type": "node", "id": 2839350209, "lat": 14.4198661, "lon": 79.9571746, "tags": {"name": "Vedayapalem", "place": "suburb"}}, {"type": "node", "id": 2839474688, "lat": 14.4093506, "lon": 79.9518975, "tags": {"name": "Venkata Reddy Nagar", "place": "suburb"}}, {"type": "node", "id": 2913229207, "lat": 14.413406, "lon": 79.9506475, "tags": {"name": "Gandhi Nagar", "place": "neighbourhood"}}, {"type": "node", "id": 11082058264, "lat": 14.4295461, "lon": 79.976088, "tags": {"name": "Annamayya Circle", "place": "neighbourhood"}}, {"type": "node", "id": 12251926253, "lat": 14.4469935, "lon": 79.9810457, "tags": {"name": "VRC Center", "place": "suburb"}}, {"type": "node", "id": 12251926254, "lat": 14.4293196, "lon": 79.9922215, "tags": {"name": "Gomati Nagar", "place": "suburb"}}, {"type": "node", "id": 12251926277, "lat": 14.422138, "lon": 79.9796592, "tags": {"name": "Vanam Thopu", "place": "suburb"}}, {"type": "node", "id": 12251926278, "lat": 14.4158222, "lon": 79.9734823, "tags": {"name": "Indira Nagar", "place": "suburb"}}, {"type": "node", "id": 12251926279, "lat": 14.418346, "lon": 79.9789295, "tags": {"name": "Kondayapalem", "place": "suburb"}}, {"type": "node", "id": 12251926280, "lat": 14.4177186, "lon": 79.9708028, "tags": {"name": "Thiruvaluvar Nagar", "place": "suburb"}}, {"type": "node", "id": 12251926286, "lat": 14.4097838, "lon": 79.9694981, "tags": {"name": "Bank Colony", "place": "suburb"}}, {"type": "node", "id": 12251926287, "lat": 14.4040943, "lon": 79.9695275, "tags": {"name": "Anagunta", "place": "suburb"}}]}