{"version": 0.6, "generator": "Overpass API 0.7.62.4 2390de5a", "osm3s": {"timestamp_osm_base": "2025-01-04T11:37:15Z", "copyright": "The data included in this document is from www.openstreetmap.org. The data is made available under ODbL."}, "elements": [{"type": "node", "id": 304976465, "lat": 12.9246853, "lon": 77.6282206}, {"type": "node", "id": 304976468, "lat": 12.9254746, "lon": 77.6285338}, {"type": "node", "id": 304976471, "lat": 12.9299552, "lon": 77.6291814}, {"type": "node", "id": 304976482, "lat": 12.9276488, "lon": 77.621133}, {"type": "node", "id": 308471818, "lat": 12.9169192, "lon": 77.5857632}, {"type": "node", "id": 308471820, "lat": 12.9064615, "lon": 77.5856336}, {"type": "node", "id": 308471822, "lat": 12.9065702, "lon": 77.5733598}, {"type": "node", "id": 308471825, "lat": 12.9115899, "lon": 77.5730508}, {"type": "node", "id": 308471829, "lat": 12.9169996, "lon": 77.5776806}, {"type": "node", "id": 308473501, "lat": 12.9169527, "lon": 77.5858728}, {"type": "node", "id": 308473502, "lat": 12.9167343, "lon": 77.5950057}, {"type": "node", "id": 308474040, "lat": 12.9167216, "lon": 77.5951085}, {"type": "node", "id": 308474041, "lat": 12.916571, "lon": 77.5997096}, {"type": "node", "id": 308474044, "lat": 12.9073526, "lon": 77.6002019}, {"type": "node", "id": 308777848, "lat": 12.9246423, "lon": 77.6283694}, {"type": "node", "id": 308777849, "lat": 12.9254613, "lon": 77.628639}, {"type": "node", "id": 308777850, "lat": 12.9299353, "lon": 77.6292758}, {"type": "node", "id": 308777853, "lat": 12.9294935, "lon": 77.6313727}, {"type": "node", "id": 308777854, "lat": 12.929558, "lon": 77.6326003}, {"type": "node", "id": 308777856, "lat": 12.9250275, "lon": 77.6334827}, {"type": "node", "id": 362613589, "lat": 12.9144237, "lon": 77.573633}, {"type": "node", "id": 362613592, "lat": 12.9175047, "lon": 77.577254}, {"type": "node", "id": 364627868, "lat": 12.9216439, "lon": 77.5858097}, {"type": "node", "id": 364627871, "lat": 12.9217223, "lon": 77.5808011}, {"type": "node", "id": 364627872, "lat": 12.9172332, "lon": 77.5808528}, {"type": "node", "id": 364627874, "lat": 12.9172042, "lon": 77.5857815}, {"type": "node", "id": 364642146, "lat": 12.9215317, "lon": 77.5957576}, {"type": "node", "id": 364642149, "lat": 12.9206489, "lon": 77.5957439}, {"type": "node", "id": 364642644, "lat": 12.9205918, "lon": 77.5859264}, {"type": "node", "id": 364642646, "lat": 12.9204947, "lon": 77.5987396}, {"type": "node", "id": 364642648, "lat": 12.9169001, "lon": 77.5985958}, {"type": "node", "id": 364642650, "lat": 12.9171785, "lon": 77.5858835}, {"type": "node", "id": 364643252, "lat": 12.9308222, "lon": 77.5808104}, {"type": "node", "id": 364643253, "lat": 12.9307553, "lon": 77.5860614}, {"type": "node", "id": 364643254, "lat": 12.9287789, "lon": 77.5860636}, {"type": "node", "id": 364643255, "lat": 12.928155, "lon": 77.5863413}, {"type": "node", "id": 364643256, "lat": 12.9274676, "lon": 77.5863704}, {"type": "node", "id": 364643257, "lat": 12.9268134, "lon": 77.58619}, {"type": "node", "id": 364643258, "lat": 12.9262965, "lon": 77.5859325}, {"type": "node", "id": 364643259, "lat": 12.9218734, "lon": 77.5858629}, {"type": "node", "id": 364643260, "lat": 12.9219326, "lon": 77.5809276}, {"type": "node", "id": 364643466, "lat": 12.9207346, "lon": 77.5859611}, {"type": "node", "id": 364643467, "lat": 12.9261312, "lon": 77.586014}, {"type": "node", "id": 364648062, "lat": 12.9172984, "lon": 77.5797449}, {"type": "node", "id": 364648063, "lat": 12.917327, "lon": 77.5781615}, {"type": "node", "id": 364648064, "lat": 12.9177164, "lon": 77.5776845}, {"type": "node", "id": 364648066, "lat": 12.917762, "lon": 77.5737659}, {"type": "node", "id": 364648068, "lat": 12.9195031, "lon": 77.5743193}, {"type": "node", "id": 364648069, "lat": 12.9209427, "lon": 77.574562}, {"type": "node", "id": 364648071, "lat": 12.921855, "lon": 77.5748714}, {"type": "node", "id": 364648072, "lat": 12.9217511, "lon": 77.5797286}, {"type": "node", "id": 429853335, "lat": 12.9096941, "lon": 77.5866067, "tags": {"alt_name": "Jayaprakash Narayan Nagar", "full_name": "Jayaprakash Nagar", "name": "JP Nagar", "name:etymology:wikidata": "Q734509", "name:etymology:wikipedia": "en:Jayaprakash Narayan", "name:kn": "\u0c9c\u0caf\u0caa\u0ccd\u0cb0\u0c95\u0cbe\u0cb6 \u0ca8\u0cbe\u0cb0\u0cbe\u0caf\u0ca3 \u0ca8\u0c97\u0cb0", "name:ta": "\u0b9c\u0bc7\u0baa\u0bbf \u0ba8\u0b95\u0bb0\u0bcd", "official_name": "Jayaprakash Nagara", "old_name": "Sarakki Layout", "place": "suburb", "short_name": "J. P. Nagar", "wikidata": "Q6106701", "wikipedia": "en:Jayaprakash Nagar, Bangalore"}}, {"type": "node", "id": 429853336, "lat": 12.9245925, "lon": 77.5645639, "tags": {"is_in": "Bengaluru", "name": "Banashankari 2nd Stage", "name:kn": "\u0cac\u0ca8\u0cb6\u0c82\u0c95\u0cb0\u0cbf", "name:ta": "\u0baa\u0ba9\u0b9a\u0b99\u0bcd\u0b95\u0bb0\u0bbf \u0b95\u0b9f\u0bcd\u0b9f\u0bae\u0bcd 2", "place": "suburb"}}, {"type": "node", "id": 429918281, "lat": 12.9212269, "lon": 77.6179508, "tags": {"is_in": "Bengaluru", "name": "Madiwala", "name:kn": "\u0cae\u0ca1\u0cbf\u0cb5\u0cbe\u0cb3", "name:ml": "\u0d2e\u0d21\u0d3f\u0d35\u0d3e\u0d33", "name:ta": "\u0bae\u0b9f\u0bbf\u0bb5\u0bbe\u0bb2\u0bbe", "place": "suburb", "wikidata": "Q6728242", "wikimedia_commons": "Category:Madiwala", "wikipedia": "en:Madiwala"}}, {"type": "node", "id": 429937955, "lat": 12.9182594, "lon": 77.5916651, "tags": {"is_in": "Bengaluru", "name": "Marenahalli", "name:kn": "\u0cae\u0cb0\u0cc7\u0ca8\u0cb9\u0cb3\u0ccd\u0cb3\u0cbf", "name:ta": "\u0bae\u0bb0\u0ba9\u0bb9\u0bb3\u0bcd\u0bb3\u0bbf", "place": "suburb"}}, {"type": "node", "id": 438066785, "lat": 12.9296211, "lon": 77.6327565}, {"type": "node", "id": 438066786, "lat": 12.9297296, "lon": 77.6330236}, {"type": "node", "id": 447032045, "lat": 12.9089453, "lon": 77.6239038, "tags": {"is_in": "Bengaluru", "name": "Bommanahalli", "name:kn": "\u0cac\u0cca\u0cae\u0ccd\u0cae\u0ca8\u0cb9\u0cb3\u0ccd\u0cb3\u0cbf", "name:ml": "\u0d2c\u0d4a\u0d2e\u0d4d\u0d2e\u0d28\u0d39\u0d33\u0d4d\u0d33\u0d3f", "name:ta": "\u0baa\u0bca\u0bae\u0bcd\u0bae\u0ba9\u0bb9\u0bb2\u0bcd\u0bb2\u0bbf", "place": "suburb", "wikidata": "Q857762", "wikipedia": "en:Bommanahalli"}}, {"type": "node", "id": 447032046, "lat": 12.9151772, "lon": 77.6102821, "tags": {"is_in": "Bengaluru", "name": "BTM Layout", "name:kn": "\u0cac\u0cbf\u0c9f\u0cbf\u0c8e\u0c82 \u0cb2\u0cc7\u0c94\u0c9f\u0ccd", "name:ta": "\u0baa\u0bbf\u0b9f\u0bbf\u0b8e\u0bae\u0bcd \u0bb2\u0bc7\u0b85\u0bb5\u0bc1\u0b9f\u0bcd", "place": "suburb"}}, {"type": "node", "id": 447032050, "lat": 12.895432, "lon": 77.5806991, "tags": {"is_in": "Bengaluru", "name": "Puttenahalli", "name:hi": "\u092a\u0941\u091f\u094d\u091f\u0928\u094d\u0928\u093e\u0939\u0932\u094d\u0932\u0940", "name:kn": "\u0caa\u0cc1\u0c9f\u0ccd\u0c9f\u0cc7\u0ca8\u0cb9\u0cb3\u0ccd\u0cb3\u0cbf", "name:ml": "\u0d2a\u0d41\u0d31\u0d4d\u0d31\u0d47\u0d28\u0d39\u0d33\u0d4d\u0d33\u0d3f", "name:ta": "\u0baa\u0bc1\u0b9f\u0bcd\u0b9f\u0ba9\u0bb9\u0bb2\u0bcd\u0bb2\u0bbf", "place": "suburb"}}, {"type": "node", "id": 447033407, "lat": 12.916279, "lon": 77.5560752, "tags": {"is_in": "Bengaluru", "name": "Padmanabha Nagar", "name:kn": "\u0caa\u0ca6\u0ccd\u0cae\u0ca8\u0cbe\u0cad \u0ca8\u0c97\u0cb0", "name:ta": "\u0baa\u0ba4\u0bcd\u0bae\u0ba8\u0bbe\u0baa\u0bbe \u0ba8\u0b95\u0bb0\u0bcd", "place": "suburb"}}, {"type": "node", "id": 447033409, "lat": 12.8974283, "lon": 77.5573828, "tags": {"is_in": "Bengaluru", "name": "ISRO Layout", "name:kn": "\u0c87\u0cb8\u0ccd\u0cb0\u0ccb \u0cac\u0ca1\u0cbe\u0cb5\u0ca3\u0cc6", "name:ml": "\u0d07\u0d38\u0d4d\u0d30\u0d4b \u0d32\u0d47\u0d14\u0d1f\u0d4d\u0d1f\u0d4d", "name:ta": "\u0b87\u0bb8\u0bcd\u0bb0\u0bcb \u0bb2\u0bc7\u0b85\u0bb5\u0bc1\u0b9f\u0bcd", "place": "suburb"}}, {"type": "node", "id": 447033411, "lat": 12.9067683, "lon": 77.5595021, "tags": {"is_in": "Bengaluru", "name": "Kumaraswamy Layout", "name:kn": "\u0c95\u0cc1\u0cae\u0cbe\u0cb0\u0cb8\u0ccd\u0cb5\u0cbe\u0cae\u0cbf \u0cac\u0ca1\u0cbe\u0cb5\u0ca3\u0cc6", "name:ta": "\u0b95\u0bc1\u0bae\u0bbe\u0bb0\u0b9a\u0bc1\u0bb5\u0bbe\u0bae\u0bbf \u0bb2\u0bc7\u0b85\u0bb5\u0bc1\u0b9f\u0bcd", "place": "suburb"}}, {"type": "node", "id": 456013553, "lat": 12.922544, "lon": 77.6633431, "tags": {"name": "Iblur", "name:kn": "\u0c87\u0cac\u0ccd\u0cac\u0cb2\u0cc2\u0cb0\u0cc1", "name:ml": "\u0d07\u0d2c\u0d32\u0d41\u0d7c", "name:ta": "\u0b87\u0baa\u0bcd\u0bb2\u0bc2\u0bb0\u0bcd", "place": "suburb"}}, {"type": "node", "id": 456016994, "lat": 12.9116225, "lon": 77.6388622, "tags": {"alt_name": "Hosur-Sarjapur Road Layout", "name": "HSR Layout", "name:kn": "\u0c8e\u0c9a\u0ccd\u0c8e\u0cb8\u0ccd\u0c86\u0cb0\u0ccd \u0cb2\u0cc7\u0c94\u0c9f\u0ccd", "name:ta": "\u0bb9\u0bc6\u0b9a\u0bcd \u0b8e\u0bb8\u0bcd \u0b86\u0bb0\u0bcd \u0bb2\u0bc7\u0b85\u0bb5\u0bc1\u0b9f\u0bcd", "place": "suburb", "wikidata": "Q5635997", "wikipedia": "en:HSR Layout"}}, {"type": "node", "id": 456021854, "lat": 12.899239, "lon": 77.5913939}, {"type": "node", "id": 456021857, "lat": 12.900475, "lon": 77.5935951}, {"type": "node", "id": 456021859, "lat": 12.9017116, "lon": 77.5945339}, {"type": "node", "id": 456021877, "lat": 12.8975486, "lon": 77.5900107}, {"type": "node", "id": 456021879, "lat": 12.8980036, "lon": 77.5915766}, {"type": "node", "id": 456025400, "lat": 12.8580811, "lon": 77.5580713, "tags": {"name": "Anjanapura", "name:kn": "\u0c85\u0c82\u0c9c\u0ca8\u0cbe\u0caa\u0cc1\u0cb0", "name:ta": "\u0b85\u0b9e\u0bcd\u0b9a\u0ba9\u0baa\u0bc1\u0bb0\u0bbe", "place": "suburb"}}, {"type": "node", "id": 458104498, "lat": 12.9229728, "lon": 77.4842926, "tags": {"alt_name": "Kengeri Satellite Town", "alt_name:kn": "\u0c95\u0cc6\u0c82\u0c97\u0cc7\u0cb0\u0cbf \u0cb8\u0ccd\u0caf\u0cbe\u0c9f\u0cbf\u0cb2\u0cc8\u0c9f\u0ccd \u0c9f\u0ccc\u0ca8\u0ccd", "name": "Kengeri", "name:kn": "\u0c95\u0cc6\u0c82\u0c97\u0cc7\u0cb0\u0cbf", "name:kn:iso15919": "Ke\u1e45g\u0113ri", "name:ml": "\u0d15\u0d46\u0d19\u0d4d\u0d15\u0d47\u0d30\u0d3f", "name:ta": "\u0b95\u0bc6\u0b99\u0bcd\u0b95\u0bc7\u0bb0\u0bbf", "place": "suburb"}}, {"type": "node", "id": 459468111, "lat": 12.8375953, "lon": 77.6865582, "tags": {"is_in": "Bangalore", "name": "Anantnagar", "name:kn": "\u0c85\u0ca8\u0c82\u0ca4\u0ca8\u0c97\u0cb0", "name:ta": "\u0b85\u0ba9\u0ba8\u0bcd\u0ba4\u0bcd \u0ba8\u0b95\u0bb0\u0bcd", "place": "suburb"}}, {"type": "node", "id": 459501900, "lat": 12.8496783, "lon": 77.6649749, "tags": {"alt_name": "Electronic City Phase 1", "name": "Electronics City Phase 1", "name:kn": "\u0c8e\u0cb2\u0ccd\u0c95\u0c9f\u0ccd\u0cb0\u0cbe\u0ca8\u0cbf\u0c95\u0ccd\u0cb8\u0ccd \u0cb8\u0cbf\u0c9f\u0cbf \u0ce7\u0ca8\u0cc7 \u0cb9\u0c82\u0ca4", "name:ml": "\u0d07\u0d32\u0d15\u0d4d\u200c\u0d1f\u0d4d\u0d30\u0d4b\u0d23\u0d3f\u0d15\u0d4d\u200c\u0d38\u0d4d \u0d38\u0d3f\u0d31\u0d4d\u0d31\u0d3f \u0d12\u0d28\u0d4d\u0d28\u0d3e\u0d02 \u0d18\u0d1f\u0d4d\u0d1f\u0d02", "name:ta": "\u0b8e\u0bb2\u0b95\u0bcd\u0b9f\u0bcd\u0bb0\u0bbe\u0ba9\u0bbf\u0b95\u0bcd \u0b9a\u0bbf\u0b9f\u0bcd\u0b9f\u0bbf \u0baa\u0b95\u0bc1\u0ba4\u0bbf 1", "place": "suburb"}}, {"type": "node", "id": 459510391, "lat": 12.8528618, "lon": 77.668169, "tags": {"name": "Konappana Agrahara", "name:kn": "\u0c95\u0ccb\u0ca8\u0caa\u0ccd\u0caa\u0ca8 \u0c85\u0c97\u0ccd\u0cb0\u0cb9\u0cbe\u0cb0", "name:ml": "\u0d15\u0d4b\u0d28\u0d2a\u0d4d\u0d2a\u0d28 \u0d05\u0d17\u0d4d\u0d30\u0d39\u0d3e\u0d30", "name:ta": "\u0b95\u0bcb\u0ba9\u0bbe\u0baa\u0bbe\u0ba9 \u0b85\u0b95\u0bcd\u0bb0\u0bb9\u0bbe\u0bb0\u0bbe", "place": "neighbourhood"}}, {"type": "node", "id": 459514803, "lat": 12.8267016, "lon": 77.6799745, "tags": {"is_in": "Bangalore", "name": "Hebbagodi", "name:kn": "\u0cb9\u0cc6\u0cac\u0ccd\u0cac\u0c97\u0ccb\u0ca1\u0cbf", "name:ta": "\u0bb9\u0bc6\u0baa\u0bcd\u0baa\u0bbe\u0b95\u0bcb\u0b9f\u0bbf", "place": "neighbourhood", "wikidata": "Q1707218", "wikipedia": "en:Hebbagodi"}}, {"type": "node", "id": 459527147, "lat": 12.8420404, "lon": 77.6322514, "tags": {"name": "Bettadasanpura", "name:kn": "\u0cac\u0cc6\u0c9f\u0ccd\u0c9f\u0ca6\u0cb8\u0ca8\u0caa\u0cc1\u0cb0", "name:ta": "\u0baa\u0bc6\u0b9f\u0bcd\u0b9f\u0ba4\u0b9a\u0ba9\u0bcd\u0baa\u0bc1\u0bb0\u0bbe", "place": "neighbourhood", "wikidata": "Q4898375", "wikipedia": "en:Bettadasanapura"}}, {"type": "node", "id": 493530617, "lat": 12.9263385, "lon": 77.6033847, "tags": {"name": "Bismillah Nagar", "name:kn": "\u0cac\u0cbf\u0cb8\u0ccd\u0cae\u0cbf\u0cb2\u0ccd\u0cb2\u0cbe \u0ca8\u0c97\u0cb0", "name:ta": "\u0baa\u0bbf\u0bb8\u0bcd\u0bae\u0bbf\u0bb2\u0bcd\u0bb2\u0bbe \u0ba8\u0b95\u0bb0\u0bcd", "place": "neighbourhood"}}, {"type": "node", "id": 493530639, "lat": 12.9253908, "lon": 77.5988922, "tags": {"name": "NAL Layout", "name:kn": "\u0c8e\u0ca8\u0ccd\u0c8e\u0c8e\u0cb2\u0ccd \u0cac\u0ca1\u0cbe\u0cb5\u0ca3\u0cc6", "place": "neighbourhood"}}, {"type": "node", "id": 493538976, "lat": 12.9275876, "lon": 77.5947124, "tags": {"name": "Tilak Nagar", "name:kn": "\u0ca4\u0cbf\u0cb2\u0c95\u0ccd \u0ca8\u0c97\u0cb0", "name:ta": "\u0ba4\u0bbf\u0bb2\u0b95\u0bcd \u0ba8\u0b95\u0bb0\u0bcd", "place": "neighbourhood"}}, {"type": "node", "id": 493556450, "lat": 12.9179103, "lon": 77.5736369}, {"type": "node", "id": 494013059, "lat": 12.9197152, "lon": 77.5776307, "tags": {"name": "Jayanagar 8th Block", "name:kn": "\u0c9c\u0caf\u0ca8\u0c97\u0cb0 \u0cee\u0ca8\u0cc7 \u0cac\u0ca1\u0cbe\u0cb5\u0ca3\u0cc6", "place": "neighbourhood"}}, {"type": "node", "id": 494013065, "lat": 12.9265737, "lon": 77.5835041, "tags": {"name": "Jayanagar 4th Block", "name:kn": "\u0c9c\u0caf\u0ca8\u0c97\u0cb0 \u0cea\u0ca8\u0cc7 \u0cac\u0ca1\u0cbe\u0cb5\u0ca3\u0cc6", "place": "neighbourhood"}}, {"type": "node", "id": 494013068, "lat": 12.9196037, "lon": 77.583381, "tags": {"name": "Jayanagar 5th Block", "name:kn": "\u0c9c\u0caf\u0ca8\u0c97\u0cb0 \u0ceb\u0ca8\u0cc7 \u0cac\u0ca1\u0cbe\u0cb5\u0ca3\u0cc6", "name:ta": "\u0b9c\u0bc6\u0baf\u0bbe\u0ba8\u0b95\u0bb0\u0bcd \u0b95\u0b9f\u0bcd\u0b9f\u0bae\u0bcd 5", "place": "neighbourhood"}}, {"type": "node", "id": 494013077, "lat": 12.9254648, "lon": 77.5775504, "tags": {"name": "Jayanagar 7th Block", "name:kn": "\u0c9c\u0caf\u0ca8\u0c97\u0cb0 \u0ced\u0ca8\u0cc7 \u0cac\u0ca1\u0cbe\u0cb5\u0ca3\u0cc6", "place": "neighbourhood"}}, {"type": "node", "id": 494013080, "lat": 12.9115924, "lon": 77.611496, "tags": {"alt_name": "MCHS Colony", "is_in": "BTM Layout", "name": "IAS Officers Colony", "name:kn": "\u0c90\u0c8e\u0c8e\u0cb8\u0ccd \u0c85\u0ca7\u0cbf\u0c95\u0cbe\u0cb0\u0cbf\u0c97\u0cb3 \u0c95\u0cbe\u0cb2\u0ccb\u0ca8\u0cbf", "place": "neighbourhood"}}, {"type": "node", "id": 494013086, "lat": 12.9237881, "lon": 77.5922433, "tags": {"name": "Jayanagar 4T Block", "name:kn": "\u0c9c\u0caf\u0ca8\u0c97\u0cb0 \u0cea\u0ca8\u0cc7 \u0c9f\u0cbf \u0cb9\u0c82\u0ca4", "place": "neighbourhood"}}, {"type": "node", "id": 494076703, "lat": 12.9126955, "lon": 77.5997488}, {"type": "node", "id": 494240021, "lat": 12.9189992, "lon": 77.5921272, "tags": {"name": "Jayanagar 9th Block", "name:kn": "\u0c9c\u0caf\u0ca8\u0c97\u0cb0 \u0cef\u0ca8\u0cc7 \u0cac\u0ccd\u0cb2\u0cbe\u0c95\u0ccd", "place": "neighbourhood"}}, {"type": "node", "id": 503050556, "lat": 12.9205501, "lon": 77.6329206}, {"type": "node", "id": 503050558, "lat": 12.919589, "lon": 77.6289219}, {"type": "node", "id": 503050560, "lat": 12.9186512, "lon": 77.6320426}, {"type": "node", "id": 503050573, "lat": 12.9210392, "lon": 77.6330558}, {"type": "node", "id": 503050575, "lat": 12.9180016, "lon": 77.6285436}, {"type": "node", "id": 503050577, "lat": 12.9187132, "lon": 77.6260606}, {"type": "node", "id": 503050594, "lat": 12.9243692, "lon": 77.6242433, "tags": {"is_in": "Koramangala", "name": "Koramangala 2nd Block", "name:kn": "\u0c95\u0ccb\u0cb0\u0cae\u0c82\u0c97\u0cb2 \u0ce8\u0ca8\u0cc7 \u0cac\u0ccd\u0cb2\u0cbe\u0c95\u0ccd", "place": "neighbourhood"}}, {"type": "node", "id": 503050601, "lat": 12.9188839, "lon": 77.6253494}, {"type": "node", "id": 503050623, "lat": 12.9261467, "lon": 77.6239445}, {"type": "node", "id": 503050630, "lat": 12.9273448, "lon": 77.6210292}, {"type": "node", "id": 503050632, "lat": 12.9269024, "lon": 77.6221483}, {"type": "node", "id": 503050643, "lat": 12.9260418, "lon": 77.6205178}, {"type": "node", "id": 503065540, "lat": 12.9221217, "lon": 77.6198591}, {"type": "node", "id": 503065547, "lat": 12.9243624, "lon": 77.6282962}, {"type": "node", "id": 503065550, "lat": 12.9240979, "lon": 77.6283419}, {"type": "node", "id": 503065552, "lat": 12.923017, "lon": 77.6230285}, {"type": "node", "id": 573534505, "lat": 12.9055682, "lon": 77.5455438, "tags": {"is_in": "Bengaluru", "name": "Uttarahalli", "name:kn": "\u0c89\u0ca4\u0ccd\u0ca4\u0cb0\u0cb9\u0cb3\u0ccd\u0cb3\u0cbf", "name:ta": "\u0b89\u0ba4\u0bcd\u0ba4\u0bb0\u0bb9\u0bb2\u0bcd\u0bb2\u0bbf", "place": "suburb"}}, {"type": "node", "id": 695119369, "lat": 12.8607674, "lon": 77.7071019, "tags": {"name": "Huskur", "name:kn": "\u0cb9\u0cc1\u0cb8\u0ccd\u0c95\u0cb0\u0ccd", "name:ta": "\u0bb9\u0bc1\u0bb8\u0bcd\u0b95\u0bcd\u0b95\u0bc2\u0bb0\u0bcd", "place": "suburb"}}, {"type": "node", "id": 699576790, "lat": 12.90775, "lon": 77.5731877}, {"type": "node", "id": 699576804, "lat": 12.9093996, "lon": 77.5730635}, {"type": "node", "id": 841805570, "lat": 12.9232498, "lon": 77.5493787, "tags": {"is_in": "Bangalore", "name": "Bhuvaneshwari Nagar", "name:kn": "\u0cad\u0cc1\u0cb5\u0ca8\u0cc7\u0cb6\u0ccd\u0cb5\u0cb0\u0cbf \u0ca8\u0c97\u0cb0", "name:ta": "\u0baa\u0bc1\u0bb5\u0ba9\u0bc7\u0bb7\u0bcd\u0bb5\u0bb0\u0bbf \u0ba8\u0b95\u0bb0\u0bcd", "place": "suburb"}}, {"type": "node", "id": 841805600, "lat": 12.9250047, "lon": 77.5444573, "tags": {"is_in": "Bangalore", "name": "Ittamadu", "name:kn": "\u0c87\u0ca4\u0ccd\u0ca4\u0cae\u0ca1\u0cc1", "place": "suburb"}}, {"type": "node", "id": 841805641, "lat": 12.9127651, "lon": 77.5340498, "tags": {"name": "AGS Layout", "name:kn": "\u0c8e\u0c9c\u0cbf\u0c8e\u0cb8\u0ccd \u0cb2\u0cc7\u0c94\u0c9f\u0ccd", "place": "suburb"}}, {"type": "node", "id": 956032188, "lat": 12.9224744, "lon": 77.6222222}, {"type": "node", "id": 1016024109, "lat": 12.9249446, "lon": 77.5808466}, {"type": "node", "id": 1070314208, "lat": 12.9150888, "lon": 77.5737645}, {"type": "node", "id": 1070361757, "lat": 12.9258724, "lon": 77.6253722}, {"type": "node", "id": 1099038300, "lat": 12.9015883, "lon": 77.6176267, "tags": {"name": "Vakil Marina Layout", "name:kn": "\u0cb5\u0c95\u0cbf\u0cb2\u0ccd \u0cae\u0cb0\u0cbf\u0ca8 \u0cb2\u0cc7\u0c94\u0c9f\u0ccd", "place": "neighbourhood"}}, {"type": "node", "id": 1192792025, "lat": 12.8162443, "lon": 77.6916113, "tags": {"name": "Bommasandra", "name:kn": "\u0cac\u0cca\u0cae\u0ccd\u0cae\u0cb8\u0c82\u0ca6\u0ccd\u0cb0", "name:ml": "\u0d2c\u0d4a\u0d2e\u0d4d\u0d2e\u0d38\u0d28\u0d4d\u0d26\u0d4d\u0d30", "name:ta": "\u0baa\u0bca\u0bae\u0bcd\u0bae\u0b9a\u0ba8\u0bcd\u0ba4\u0bcd\u0bb0\u0bbe", "place": "suburb", "wikidata": "Q861398", "wikimedia_commons": "Category:Bommasandra", "wikipedia": "en:Bommasandra"}}, {"type": "node", "id": 1278162245, "lat": 12.9225582, "lon": 77.6344738, "tags": {"name": "Venkatpura", "name:kn": "\u0cb5\u0cc6\u0c82\u0c95\u0c9f\u0caa\u0cc1\u0cb0", "name:ta": "\u0bb5\u0bc6\u0b99\u0bcd\u0b95\u0b9f\u0baa\u0bc1\u0bb0\u0bbe", "place": "neighbourhood"}}, {"type": "node", "id": 1285320193, "lat": 12.9026231, "lon": 77.5991776}, {"type": "node", "id": 1285320194, "lat": 12.9018571, "lon": 77.5993627}, {"type": "node", "id": 1315060372, "lat": 12.921123, "lon": 77.6692722}, {"type": "node", "id": 1315060373, "lat": 12.9195639, "lon": 77.6688027}, {"type": "node", "id": 1377892057, "lat": 12.9197681, "lon": 77.6323627}, {"type": "node", "id": 1390987865, "lat": 12.9237661, "lon": 77.6905922}, {"type": "node", "id": 1390987898, "lat": 12.9243059, "lon": 77.6925641}, {"type": "node", "id": 1390987913, "lat": 12.9238232, "lon": 77.6920968}, {"type": "node", "id": 1390987918, "lat": 12.9234535, "lon": 77.6913884}, {"type": "node", "id": 1390987920, "lat": 12.922249, "lon": 77.6886861}, {"type": "node", "id": 1390987940, "lat": 12.9220209, "lon": 77.6948797}, {"type": "node", "id": 1390987941, "lat": 12.9240498, "lon": 77.689951}, {"type": "node", "id": 1390987956, "lat": 12.9243642, "lon": 77.692252}, {"type": "node", "id": 1390987968, "lat": 12.9231713, "lon": 77.6917322}, {"type": "node", "id": 1390987977, "lat": 12.9236415, "lon": 77.6910526}, {"type": "node", "id": 1390988004, "lat": 12.9242796, "lon": 77.6949192}, {"type": "node", "id": 1390988006, "lat": 12.9238054, "lon": 77.6921493}, {"type": "node", "id": 1390988008, "lat": 12.9243211, "lon": 77.6891267}, {"type": "node", "id": 1390988029, "lat": 12.9233429, "lon": 77.6915569}, {"type": "node", "id": 1405583404, "lat": 12.8731964, "lon": 77.6145886, "tags": {"name": "Akshaynagar Layout", "name:kn": "\u0c85\u0c95\u0ccd\u0cb7\u0caf\u0ca8\u0c97\u0cb0 \u0cb2\u0cc7\u0c94\u0c9f\u0ccd", "place": "neighbourhood"}}, {"type": "node", "id": 1433644252, "lat": 12.9265788, "lon": 77.5392611, "tags": {"name": "Dattatreya Nagara", "name:kn": "\u0ca6\u0ca4\u0ccd\u0ca4\u0cbe\u0ca4\u0ccd\u0cb0\u0cc7\u0caf \u0ca8\u0c97\u0cb0", "place": "neighbourhood"}}, {"type": "node", "id": 1472880357, "lat": 12.924463, "lon": 77.629883}, {"type": "node", "id": 1472934965, "lat": 12.8669074, "lon": 77.6159019, "tags": {"name": "Yelenahalli", "name:kn": "\u0c8e\u0cb2\u0cc7\u0ca8\u0cb9\u0cb3\u0ccd\u0cb3\u0cbf", "name:ta": "\u0b8e\u0bb2\u0ba9\u0bb9\u0bb3\u0bcd\u0bb3\u0bbf", "place": "neighbourhood"}}, {"type": "node", "id": 1473230128, "lat": 12.910597, "lon": 77.5730568}, {"type": "node", "id": 1473298104, "lat": 12.9243674, "lon": 77.629107}, {"type": "node", "id": 1523278331, "lat": 12.8868121, "lon": 77.5480005}, {"type": "node", "id": 1523278335, "lat": 12.8858634, "lon": 77.5493207}, {"type": "node", "id": 1578382362, "lat": 12.9141207, "lon": 77.5997443}, {"type": "node", "id": 1588150123, "lat": 12.9200602, "lon": 77.506701, "tags": {"name": "Pattanagere", "name:kn": "\u0caa\u0c9f\u0ccd\u0c9f\u0ca3\u0c97\u0cc6\u0cb0\u0cc6", "name:ta": "\u0baa\u0b9f\u0bcd\u0b9f\u0ba9\u0b95\u0bc7\u0bb0\u0bc7", "place": "suburb"}}, {"type": "node", "id": 1603379745, "lat": 12.924201, "lon": 77.6284215}, {"type": "node", "id": 1653906398, "lat": 12.916185, "lon": 77.6381204}, {"type": "node", "id": 1757013241, "lat": 12.9140788, "lon": 77.6188862, "tags": {"name": "BTM 2nd Stage", "name:kn": "\u0cac\u0cbf\u0c9f\u0cbf\u0c8e\u0c82 \u0ce8\u0ca8\u0cc7 \u0cb9\u0c82\u0ca4", "place": "neighbourhood"}}, {"type": "node", "id": 1837005126, "lat": 12.922367, "lon": 77.6196509}, {"type": "node", "id": 1837005144, "lat": 12.9246006, "lon": 77.6183651}, {"type": "node", "id": 1837005172, "lat": 12.9261782, "lon": 77.6173062}, {"type": "node", "id": 1837408615, "lat": 12.9262178, "lon": 77.5897227}, {"type": "node", "id": 1837408616, "lat": 12.9262351, "lon": 77.588085}, {"type": "node", "id": 1837408617, "lat": 12.9268429, "lon": 77.597064}, {"type": "node", "id": 1837408618, "lat": 12.9270031, "lon": 77.5897279}, {"type": "node", "id": 1837408619, "lat": 12.9270653, "lon": 77.5881098}, {"type": "node", "id": 1837408620, "lat": 12.9270817, "lon": 77.5863905}, {"type": "node", "id": 1860933970, "lat": 12.8529125, "lon": 77.6556155, "tags": {"alt_name": "Doddathogur", "name": "Doddathoguru", "name:kn": "\u0ca6\u0ccb\u0ca1\u0ccd\u0ca1\u0ca4\u0ccb\u0c97\u0cc2\u0cb0\u0cc1", "place": "neighbourhood"}}, {"type": "node", "id": 1860938873, "lat": 12.8371576, "lon": 77.6725236, "tags": {"alt_name": "Electronic City Phase 2 (West)", "name": "Electronics City Phase 2 (West)", "name:kn": "\u0c8e\u0cb2\u0c95\u0ccd\u0c9f\u0ccd\u0cb0\u0cbe\u0ca8\u0cbf\u0c95\u0ccd\u0cb8\u0ccd \u0cb8\u0cbf\u0c9f\u0cbf \u0ce8\u0ca8\u0cc7 \u0cb9\u0c82\u0ca4 (\u0caa\u0cb6\u0ccd\u0c9a\u0cbf\u0cae)", "name:ml": "\u0d07\u0d32\u0d15\u0d4d\u200c\u0d1f\u0d4d\u0d30\u0d4b\u0d23\u0d3f\u0d15\u0d4d\u200c\u0d38\u0d4d \u0d38\u0d3f\u0d31\u0d4d\u0d31\u0d3f \u0d30\u0d23\u0d4d\u0d1f\u0d3e\u0d02 \u0d18\u0d1f\u0d4d\u0d1f\u0d02 (\u0d2a\u0d1f\u0d3f\u0d1e\u0d4d\u0d1e\u0d3e\u0d31\u0d4d)", "name:ta": "\u0b8e\u0bb2\u0b95\u0bcd\u0b9f\u0bcd\u0bb0\u0bbe\u0ba9\u0bbf\u0b95\u0bcd \u0b9a\u0bbf\u0b9f\u0bcd\u0b9f\u0bbf \u0baa\u0b95\u0bc1\u0ba4\u0bbf 2 (\u0bae\u0bc7\u0bb1\u0bcd\u0b95\u0bc1)", "place": "suburb"}}, {"type": "node", "id": 1860940083, "lat": 12.8468545, "lon": 77.6769267, "tags": {"alt_name": "Electronic City Phase 2", "name": "Electronics City Phase 2 (East)", "name:kn": "\u0c8e\u0cb2\u0c95\u0ccd\u0c9f\u0ccd\u0cb0\u0cbe\u0ca8\u0cbf\u0c95\u0ccd\u0cb8\u0ccd \u0cb8\u0cbf\u0c9f\u0cbf \u0ce8\u0ca8\u0cc7 \u0cb9\u0c82\u0ca4 (\u0caa\u0cc2\u0cb0\u0ccd\u0cb5)", "name:ml": "\u0d07\u0d32\u0d15\u0d4d\u200c\u0d1f\u0d4d\u0d30\u0d4b\u0d23\u0d3f\u0d15\u0d4d\u200c\u0d38\u0d4d \u0d38\u0d3f\u0d31\u0d4d\u0d31\u0d3f \u0d30\u0d23\u0d4d\u0d1f\u0d3e\u0d02 \u0d18\u0d1f\u0d4d\u0d1f\u0d02 (\u0d15\u0d3f\u0d34\u0d15\u0d4d\u0d15\u0d4d)", "name:ta": "\u0b8e\u0bb2\u0b95\u0bcd\u0b9f\u0bcd\u0bb0\u0bbe\u0ba9\u0bbf\u0b95\u0bcd \u0b9a\u0bbf\u0b9f\u0bcd\u0b9f\u0bbf \u0baa\u0b95\u0bc1\u0ba4\u0bbf 2 (\u0b95\u0bbf\u0bb4\u0b95\u0bcd\u0b95\u0bc1)", "place": "suburb"}}, {"type": "node", "id": 1877836577, "lat": 12.875925, "lon": 77.5471883, "tags": {"name": "Vajrahalli", "name:kn": "\u0cb5\u0c9c\u0ccd\u0cb0\u0cb9\u0cb3\u0ccd\u0cb3\u0cbf", "name:ta": "\u0bb5\u0b9c\u0bcd\u0bb0\u0bb9\u0bb2\u0bcd\u0bb2\u0bbf", "place": "suburb"}}, {"type": "node", "id": 1877836586, "lat": 12.8698169, "lon": 77.5356688, "tags": {"name": "Thalaghattapura", "name:kn": "\u0ca4\u0cb2\u0c98\u0c9f\u0ccd\u0c9f\u0caa\u0cc1\u0cb0", "name:ta": "\u0ba4\u0bb2\u0b95\u0b9f\u0bcd\u0b9f\u0baa\u0bc1\u0bb0\u0bbe", "place": "neighbourhood"}}, {"type": "node", "id": 1989418061, "lat": 12.8087698, "lon": 77.6673579, "tags": {"name": "Yarandahalli", "name:kn": "\u0caf\u0cbe\u0cb0\u0c82\u0ca1\u0cb9\u0cb3\u0ccd\u0cb3\u0cbf", "name:ml": "\u0d2f\u0d3e\u0d30\u0d23\u0d4d\u0d1f\u0d39\u0d33\u0d4d\u0d33\u0d3f", "place": "suburb"}}, {"type": "node", "id": 2019307544, "lat": 12.8884396, "lon": 77.580509, "tags": {"name": "RBI Layout", "name:kn": "\u0c86\u0cb0\u0ccd\u200c\u0cac\u0cbf\u0c90 \u0cb2\u0cc7\u0c94\u0c9f\u0ccd", "place": "neighbourhood"}}, {"type": "node", "id": 2020102551, "lat": 12.8823286, "lon": 77.5828765, "tags": {"name": "Navodaya Nagar", "name:kn": "\u0ca8\u0cb5\u0ccb\u0ca6\u0caf \u0ca8\u0c97\u0cb0", "name:ta": "\u0ba8\u0bb5\u0bcb\u0ba4\u0baf\u0bbe \u0ba8\u0b95\u0bb0\u0bcd", "place": "neighbourhood"}}, {"type": "node", "id": 2020104723, "lat": 12.8831747, "lon": 77.5824835, "tags": {"name": "Shreyas Colony", "name:kn": "\u0cb6\u0ccd\u0cb0\u0cc7\u0caf\u0cb8\u0ccd \u0c95\u0cbe\u0cb2\u0ccb\u0ca8\u0cbf", "place": "neighbourhood"}}, {"type": "node", "id": 2021561645, "lat": 12.8929519, "lon": 77.5810914, "tags": {"name": "Sri Rama Layout", "name:kn": "\u0cb6\u0ccd\u0cb0\u0cc0\u0cb0\u0cbe\u0cae \u0cb2\u0cc7\u0c94\u0c9f\u0ccd", "place": "neighbourhood"}}, {"type": "node", "id": 2021572119, "lat": 12.8947001, "lon": 77.5825355, "tags": {"name": "Jagruthi Colony", "name:kn": "\u0c9c\u0cbe\u0c97\u0cc3\u0ca4\u0cbf \u0c95\u0cbe\u0cb2\u0ccb\u0ca8\u0cbf", "place": "neighbourhood"}}, {"type": "node", "id": 2026433130, "lat": 12.8918543, "lon": 77.5777361, "tags": {"name": "Sri Guru Raghavendra Nagar", "name:kn": "\u0cb6\u0ccd\u0cb0\u0cc0 \u0c97\u0cc1\u0cb0\u0cc1\u0cb0\u0cbe\u0c98\u0cc1\u0cb5\u0cc7\u0c82\u0ca6\u0ccd\u0cb0 \u0ca8\u0c97\u0cb0", "name:ta": "\u0bb8\u0bcd\u0bb0\u0bc0 \u0b95\u0bc1\u0bb0\u0bc1 \u0bb0\u0bbe\u0b95\u0bb5\u0bc7\u0ba8\u0bcd\u0ba4\u0bbf\u0bb0\u0bbe \u0ba8\u0b95\u0bb0\u0bcd", "place": "neighbourhood"}}, {"type": "node", "id": 2026433977, "lat": 12.8925603, "lon": 77.5786648, "tags": {"name": "Lakshmi Nagar", "name:kn": "\u0cb2\u0c95\u0ccd\u0cb7\u0ccd\u0cae\u0cc0 \u0ca8\u0c97\u0cb0", "place": "neighbourhood"}}, {"type": "node", "id": 2026453731, "lat": 12.8917159, "lon": 77.5759295, "tags": {"name": "Eshwara Layout", "name:kn": "\u0c88\u0cb6\u0ccd\u0cb5\u0cb0 \u0cb2\u0cc7\u0c94\u0c9f\u0ccd", "place": "neighbourhood"}}, {"type": "node", "id": 2026489565, "lat": 12.890563, "lon": 77.5759964, "tags": {"name": "Yadava Layout", "name:kn": "\u0caf\u0cbe\u0ca6\u0cb5 \u0cb2\u0cc7\u0c94\u0c9f\u0ccd", "name:ta": "\u0baf\u0bbe\u0ba4\u0bb5\u0bbe\u200c \u0bb2\u0bc7\u0b85\u0bb5\u0bc1\u0b9f\u0bcd", "place": "neighbourhood"}}, {"type": "node", "id": 2030156020, "lat": 12.893481, "lon": 77.5837404, "tags": {"name": "Bank of Baroda Colony", "name:kn": "\u0cac\u0ccd\u0caf\u0cbe\u0c82\u0c95\u0ccd \u0c86\u0cab\u0ccd \u0cac\u0cb0\u0ccb\u0ca1 \u0c95\u0cbe\u0cb2\u0ccb\u0ca8\u0cbf", "place": "neighbourhood"}}, {"type": "node", "id": 2034326521, "lat": 12.8853616, "lon": 77.5854089, "tags": {"name": "Sun City Layout", "name:kn": "\u0cb8\u0ca8\u0ccd \u0cb8\u0cbf\u0c9f\u0cbf \u0cb2\u0cc7\u0c94\u0c9f\u0ccd", "name:ta": "\u0b9a\u0ba9\u0bcd \u0b9a\u0bbf\u0b9f\u0bcd\u0b9f\u0bbf \u0bb2\u0bc7\u0b85\u0bb5\u0bc1\u0b9f\u0bcd", "place": "neighbourhood"}}, {"type": "node", "id": 2046148406, "lat": 12.8971719, "lon": 77.5800418, "tags": {"name": "Ramappa Layout", "name:kn": "\u0cb0\u0cbe\u0cae\u0caa\u0ccd\u0caa \u0cb2\u0cc7\u0c94\u0c9f\u0ccd", "place": "neighbourhood"}}, {"type": "node", "id": 2063164108, "lat": 12.8900173, "lon": 77.5836989, "tags": {"name": "Nataraja Layout", "name:kn": "\u0ca8\u0c9f\u0cb0\u0cbe\u0c9c \u0cb2\u0cc7\u0c94\u0c9f\u0ccd", "place": "neighbourhood"}}, {"type": "node", "id": 2066481132, "lat": 12.8833125, "lon": 77.588126, "tags": {"name": "M S Ramaiah City", "name:kn": "\u0c8e\u0c82 \u0c8e\u0cb8\u0ccd \u0cb0\u0cbe\u0cae\u0caf\u0ccd\u0caf \u0ca8\u0c97\u0cb0", "place": "neighbourhood"}}, {"type": "node", "id": 2066488017, "lat": 12.8829972, "lon": 77.5837803, "tags": {"name": "Nrupathunga Nagar", "name:kn": "\u0ca8\u0cc3\u0caa\u0ca4\u0cc1\u0c82\u0c97 \u0ca8\u0c97\u0cb0", "place": "neighbourhood"}}, {"type": "node", "id": 2101165712, "lat": 12.8944383, "lon": 77.6594748, "tags": {"name": "Tropical Paradise Layout", "name:kn": "\u0c9f\u0ccd\u0cb0\u0cca\u0caa\u0cbf\u0c95\u0cb2\u0ccd \u0caa\u0ccd\u0caf\u0cbe\u0cb0\u0ca1\u0cc8\u0cb8\u0ccd \u0cb2\u0cc7\u0c94\u0c9f\u0ccd", "place": "neighbourhood"}}, {"type": "node", "id": 2180747096, "lat": 12.9034217, "lon": 77.5828148, "tags": {"name": "K R Layout", "name:kn": "\u0c95\u0cc6 \u0c86\u0cb0\u0ccd \u0cb2\u0cc7\u0c94\u0c9f\u0ccd", "name:ta": "\u0b95\u0bc7 \u0b86\u0bb0\u0bcd \u0bb2\u0bc7\u0b85\u0bb5\u0bc1\u0b9f\u0bcd", "place": "neighbourhood", "source": "voice"}}, {"type": "node", "id": 2181320617, "lat": 12.8830861, "lon": 77.5708953, "tags": {"name": "Srinidhi Layout", "name:kn": "\u0cb6\u0ccd\u0cb0\u0cc0\u0ca8\u0cbf\u0ca7\u0cbf \u0cb2\u0cc7\u0c94\u0c9f\u0ccd", "name:ta": "\u0bb8\u0bcd\u0bb0\u0bc0\u0ba8\u0bbf\u0ba4\u0bbf \u0bb2\u0bc7\u0b85\u0bb5\u0bc1\u0b9f\u0bcd", "place": "neighbourhood"}}, {"type": "node", "id": 2194305511, "lat": 12.8917559, "lon": 77.5946165, "tags": {"name": "Govinda Reddy Layout", "name:kn": "\u0c97\u0ccb\u0cb5\u0cbf\u0c82\u0ca6 \u0cb0\u0cc6\u0ca1\u0ccd\u0ca1\u0cbf \u0cb2\u0cc7\u0c94\u0c9f\u0ccd", "name:ta": "\u0b95\u0bcb\u0bb5\u0bbf\u0ba8\u0bcd\u0ba4 \u0bb0\u0bc6\u0b9f\u0bcd\u0b9f\u0bbf \u0bb2\u0bc7\u0b85\u0bb5\u0bc1\u0b9f\u0bcd", "place": "neighbourhood", "source": "voice"}}, {"type": "node", "id": 2194305512, "lat": 12.8905542, "lon": 77.5941914, "tags": {"name": "Mico Arekere Layout 1st Stage", "name:kn": "\u0cae\u0cbf\u0c95\u0cca \u0c85\u0cb0\u0c95\u0cc6\u0cb0\u0cc6 \u0cb2\u0cc7\u0c94\u0c9f\u0ccd \u0ce7\u0ca8\u0cc7 \u0cb9\u0c82\u0ca4", "place": "neighbourhood", "source": "voice"}}, {"type": "node", "id": 2244866500, "lat": 12.8004439, "lon": 77.7062826, "tags": {"name": "Chandapura", "name:kn": "\u0c9a\u0c82\u0ca6\u0cbe\u0caa\u0cc1\u0cb0", "name:kn:iso15919": "Cand\u0101pura", "name:ta": "\u0b9a\u0ba8\u0bcd\u0ba4\u0baa\u0bcd\u0baa\u0bc1\u0bb0\u0bbe", "place": "suburb", "postal_code": "562145", "wikidata": "Q5070974", "wikimedia_commons": "Category:Chandapura", "wikipedia": "en:Chandapura"}}, {"type": "node", "id": 2257729014, "lat": 12.8849456, "lon": 77.5472157}, {"type": "node", "id": 2272202602, "lat": 12.7930947, "lon": 77.7000382, "tags": {"name": "Suryanagar Phase 1", "name:kn": "\u0cb8\u0cc2\u0cb0\u0ccd\u0caf\u0ca8\u0c97\u0cb0", "name:ta": "\u0b9a\u0bc2\u0bb0\u0bcd\u0baf\u0bbe \u0ba8\u0b95\u0bb0\u0bcd \u0baa\u0b95\u0bc1\u0ba4\u0bbf 1", "place": "suburb"}}, {"type": "node", "id": 2358270964, "lat": 12.85388, "lon": 77.5999168}, {"type": "node", "id": 2358270966, "lat": 12.855517, "lon": 77.6029316}, {"type": "node", "id": 2358270968, "lat": 12.8551729, "lon": 77.6032422}, {"type": "node", "id": 2358270970, "lat": 12.8550149, "lon": 77.5996969}, {"type": "node", "id": 2358270972, "lat": 12.8540526, "lon": 77.6034788}, {"type": "node", "id": 2387544916, "lat": 12.9192361, "lon": 77.6839076}, {"type": "node", "id": 2387544924, "lat": 12.9175236, "lon": 77.6837413}, {"type": "node", "id": 2387544926, "lat": 12.9174373, "lon": 77.6822849}, {"type": "node", "id": 2387544927, "lat": 12.9174373, "lon": 77.6831244}, {"type": "node", "id": 2414393603, "lat": 12.9239716, "lon": 77.6902642}, {"type": "node", "id": 2593549161, "lat": 12.8846483, "lon": 77.4424749, "tags": {"name": "Gerupalya", "name:kn": "\u0c97\u0cc7\u0cb0\u0cc1\u0caa\u0cbe\u0cb3\u0ccd\u0caf", "place": "neighbourhood"}}, {"type": "node", "id": 2593549174, "lat": 12.8914655, "lon": 77.4588601, "tags": {"name": "Anchepalya", "name:kn": "\u0c85\u0c82\u0c9a\u0cc7\u0caa\u0cbe\u0cb3\u0ccd\u0caf", "place": "neighbourhood"}}, {"type": "node", "id": 2595129918, "lat": 12.8960653, "lon": 77.4539979, "tags": {"name": "Challaghatta", "name:kn": "\u0c9a\u0cb3\u0ccd\u0cb3\u0c98\u0c9f\u0ccd\u0c9f", "name:kn:iso15919": "Ca\u1e37\u1e37agha\u1e6d\u1e6da", "name:ml": "\u0d1a\u0d33\u0d4d\u0d33\u0d18\u0d1f\u0d4d\u0d1f", "name:ta": "\u0b9a\u0bb2\u0bcd\u0bb2\u0b95\u0b9f\u0bcd\u0b9f\u0bbe", "place": "suburb"}}, {"type": "node", "id": 2909527109, "lat": 12.8994357, "lon": 77.6524573, "tags": {"name": "Somasundarapalya", "name:kn": "\u0cb8\u0ccb\u0cae\u0cb8\u0cc1\u0c82\u0ca6\u0cb0\u0caa\u0cbe\u0cb3\u0ccd\u0caf", "name:ta": "\u0b9a\u0bcb\u0bae\u0b9a\u0bc1\u0ba8\u0bcd\u0ba4\u0bb0\u0baa\u0bbe\u0bb2\u0bcd\u0baf\u0bbe", "place": "neighbourhood"}}, {"type": "node", "id": 2917077003, "lat": 12.8717255, "lon": 77.574927, "tags": {"name": "Brookes Haven Layout", "name:kn": "\u0cac\u0ccd\u0cb0\u0cc2\u0c95\u0ccd\u0cb8\u0ccd \u0cb9\u0cbe\u0cb5\u0cc6\u0ca8\u0ccd \u0cb2\u0cc7\u0c94\u0c9f\u0ccd", "name:ta": "\u0baa\u0bcd\u0bb0\u0bc2\u0b95\u0bcd\u0bb8\u0bcd \u0bb9\u0bc6\u0bb5\u0ba9\u0bcd \u0bb2\u0bc7\u0b85\u0bb5\u0bc1\u0b9f\u0bcd", "place": "neighbourhood"}}, {"type": "node", "id": 2941483808, "lat": 12.9140082, "lon": 77.607945, "tags": {"name": "BTM Layout 2nd Stage", "name:kn": "\u0cac\u0cbf\u0c9f\u0cbf\u0c8e\u0c82 \u0cac\u0ca1\u0cbe\u0cb5\u0ca3\u0cc6 \u0ce8\u0ca8\u0cc7 \u0cb9\u0c82\u0ca4", "place": "neighbourhood"}}, {"type": "node", "id": 2941483809, "lat": 12.9190004, "lon": 77.6112906, "tags": {"name": "BTM Layout 1st Stage", "name:kn": "\u0cac\u0cbf\u0c9f\u0cbf\u0c8e\u0c82 \u0cac\u0ca1\u0cbe\u0cb5\u0ca3\u0cc6 \u0ce7\u0ca8\u0cc7 \u0cb9\u0c82\u0ca4", "place": "neighbourhood"}}, {"type": "node", "id": 2941487973, "lat": 12.9128289, "lon": 77.6028358, "tags": {"is_in": "BTM Layout", "name": "MICO Layout", "name:kn": "\u0cae\u0cbf\u0c95\u0cca \u0cac\u0ca1\u0cbe\u0cb5\u0ca3\u0cc6", "place": "neighbourhood"}}, {"type": "node", "id": 2941487974, "lat": 12.9076689, "lon": 77.6123722, "tags": {"is_in": "BTM Layout", "name": "Mahadeshwara Nagara", "name:kn": "\u0cae\u0cb9\u0cbe\u0ca6\u0cc7\u0cb6\u0ccd\u0cb5\u0cb0 \u0ca8\u0c97\u0cb0", "place": "neighbourhood"}}, {"type": "node", "id": 2941488876, "lat": 12.9180954, "lon": 77.5884756, "tags": {"name": "DK Naik Nagar", "name:kn": "\u0ca1\u0cbf\u0c95\u0cc6 \u0ca8\u0cbe\u0caf\u0ccd\u0c95\u0ccd \u0ca8\u0c97\u0cb0", "place": "neighbourhood"}}, {"type": "node", "id": 2989201781, "lat": 12.8347106, "lon": 77.697364, "tags": {"name": "Sampige Nagara", "name:kn": "\u0cb8\u0c82\u0caa\u0cbf\u0c97\u0cc6 \u0ca8\u0c97\u0cb0", "name:ml": "\u0d38\u0d2e\u0d4d\u0d2a\u0d3f\u0d17\u0d46 \u0d28\u0d17\u0d30", "name:ta": "\u0b9a\u0bae\u0bcd\u0baa\u0bbf\u0b95\u0bc7 \u0ba8\u0b95\u0bb0\u0bbe", "place": "neighbourhood"}}, {"type": "node", "id": 3079691483, "lat": 12.8296192, "lon": 77.4854176, "tags": {"addr:city": "Bangalore", "name": "Banjarapalya", "name:kn": "\u0cac\u0c82\u0c9c\u0cbe\u0cb0\u0caa\u0cbe\u0cb3\u0ccd\u0caf", "place": "suburb"}}, {"type": "node", "id": 3079691485, "lat": 12.8419732, "lon": 77.482913, "tags": {"addr:city": "Bangalore", "alt_name": "Gangasandra", "name": "Hosapalya", "name:kn": "\u0cb9\u0cca\u0cb8\u0caa\u0cbe\u0cb3\u0ccd\u0caf", "place": "suburb"}}, {"type": "node", "id": 3139499430, "lat": 12.9016854, "lon": 77.595026}, {"type": "node", "id": 3158790016, "lat": 12.9220985, "lon": 77.6335648}, {"type": "node", "id": 3158790035, "lat": 12.9240468, "lon": 77.6391984}, {"type": "node", "id": 3198671588, "lat": 12.9171087, "lon": 77.6283493}, {"type": "node", "id": 3198671590, "lat": 12.9215309, "lon": 77.6352145}, {"type": "node", "id": 3221362711, "lat": 12.9243496, "lon": 77.637603, "tags": {"name": "Jakkasandra", "name:kn": "\u0c9c\u0c95\u0ccd\u0c95\u0cb8\u0c82\u0ca6\u0ccd\u0cb0", "name:ml": "\u0d1c\u0d3e\u0d15\u0d4d\u0d15\u0d38\u0d3e\u0d28\u0d4d\u0d24\u0d4d\u0d30", "name:ta": "\u0b9c\u0b95\u0bcd\u0b95\u0b9a\u0ba8\u0bcd\u0ba4\u0bcd\u0bb0\u0bbe", "place": "neighbourhood"}}, {"type": "node", "id": 3221362712, "lat": 12.9188265, "lon": 77.6341185, "tags": {"alt_name": "Teachers Colony", "name": "Teacher's Colony", "name:kn": "\u0c9f\u0cc7\u0c9a\u0cb0\u0ccd\u0cb8\u0ccd \u0c95\u0cbe\u0cb2\u0ccb\u0ca8\u0cbf", "place": "neighbourhood"}}, {"type": "node", "id": 3240631511, "lat": 12.9266834, "lon": 77.622669, "tags": {"access": "private", "barrier": "gate"}}, {"type": "node", "id": 3240631514, "lat": 12.9262191, "lon": 77.6237634, "tags": {"access": "private", "barrier": "gate"}}, {"type": "node", "id": 3240677957, "lat": 12.9143405, "lon": 77.631707, "tags": {"name": "Sector 6", "name:kn": "\u0cb8\u0cc6\u0c95\u0ccd\u0c9f\u0cb0\u0ccd \u0cec", "place": "neighbourhood"}}, {"type": "node", "id": 3298876842, "lat": 12.9088805, "lon": 77.6483163, "tags": {"name": "Sector 2", "name:kn": "\u0cb8\u0cc6\u0c95\u0ccd\u0c9f\u0cb0\u0ccd \u0ce8", "place": "neighbourhood"}}, {"type": "node", "id": 3300149441, "lat": 12.905811, "lon": 77.6323745, "tags": {"name": "Mangamannapalya", "name:kn": "\u0cae\u0c82\u0c97\u0cae\u0ccd\u0cae\u0ca8\u0caa\u0cbe\u0cb3\u0ccd\u0caf", "name:ta": "\u0bae\u0b99\u0bcd\u0b95\u0bae\u0ba9\u0bcd\u0ba9\u0bbe\u0baa\u0bbe\u0bb2\u0bcd\u0baf\u0bbe", "place": "neighbourhood"}}, {"type": "node", "id": 3300149442, "lat": 12.9157227, "lon": 77.649014, "tags": {"name": "Sector 1", "name:kn": "\u0cb8\u0cc6\u0c95\u0ccd\u0c9f\u0cb0\u0ccd \u0ce7", "place": "neighbourhood"}}, {"type": "node", "id": 3300149443, "lat": 12.9090825, "lon": 77.6414091, "tags": {"name": "Sector 3", "name:kn": "\u0cb8\u0cc6\u0c95\u0ccd\u0c9f\u0cb0\u0ccd \u0ce9", "place": "neighbourhood"}}, {"type": "node", "id": 3300149444, "lat": 12.9144684, "lon": 77.6418499, "tags": {"name": "Sector 4", "name:kn": "\u0cb8\u0cc6\u0c95\u0ccd\u0c9f\u0cb0\u0ccd \u0cea", "place": "neighbourhood"}}, {"type": "node", "id": 3300149445, "lat": 12.9100092, "lon": 77.6351171, "tags": {"name": "Sector 7", "name:kn": "\u0cb8\u0cc6\u0c95\u0ccd\u0c9f\u0cb0\u0ccd \u0ced", "place": "neighbourhood"}}, {"type": "node", "id": 3302642056, "lat": 12.9189254, "lon": 77.5986561}, {"type": "node", "id": 3304756734, "lat": 12.9224501, "lon": 77.6138927, "tags": {"name": "Maruthi Nagara", "name:kn": "\u0cae\u0cbe\u0cb0\u0cc1\u0ca4\u0cbf \u0ca8\u0c97\u0cb0", "name:ml": "\u0d2e\u0d3e\u0d30\u0d41\u0d24\u0d3f\u0d28\u0d17\u0d30", "place": "neighbourhood"}}, {"type": "node", "id": 3304756756, "lat": 12.9210183, "lon": 77.6331508}, {"type": "node", "id": 3305446529, "lat": 12.8889126, "lon": 77.6555716, "tags": {"name": "Kudlu", "name:kn": "\u0c95\u0cc1\u0ca1\u0ccd\u0cb2\u0cc1", "name:ml": "\u0d15\u0d41\u0d21\u0d4d\u200c\u0d32\u0d41", "name:ta": "\u0b95\u0bc1\u0b9f\u0bcd\u0bb2\u0bc1", "place": "suburb"}}, {"type": "node", "id": 3335797567, "lat": 12.7869633, "lon": 77.7048192, "tags": {"name": "Iggaluru", "name:kn": "\u0c87\u0c97\u0ccd\u0c97\u0cb2\u0cc2\u0cb0\u0cc1", "name:kn:iso15919": "Iggal\u016bru", "place": "neighbourhood"}}, {"type": "node", "id": 3336377110, "lat": 12.8747465, "lon": 77.6227293, "tags": {"name": "Beguru", "name:kn": "\u0cac\u0cc7\u0c97\u0cc2\u0cb0\u0cc1", "name:kn:iso15919": "B\u0113g\u016bru", "name:ta": "\u0baa\u0bc7\u0b95\u0bc2\u0bb0\u0bc1", "place": "suburb", "wikidata": "Q4880636", "wikimedia_commons": "Category:Begur, Bangalore", "wikipedia": "en:Begur, Bangalore"}}, {"type": "node", "id": 3414616703, "lat": 12.9140392, "lon": 77.5521201, "tags": {"name": "Seven Hills Layout", "name:kn": "\u0cb8\u0caa\u0ccd\u0ca4\u0c97\u0cbf\u0cb0\u0cbf \u0cb2\u0cc7\u0c94\u0c9f\u0ccd", "old_name": "Sapthagiri Layout", "place": "neighbourhood"}}, {"type": "node", "id": 3417085495, "lat": 12.9043655, "lon": 77.5653751, "tags": {"name": "Rajotsava Nagar", "name:kn": "\u0cb0\u0cbe\u0c9c\u0cca\u0ca4\u0ccd\u0cb8\u0cb5 \u0ca8\u0c97\u0cb0", "name:ta": "\u0bb0\u0bbe\u0b9c\u0bcb\u0b9f\u0bcd\u0b9a\u0bb5\u0bbe\u200c \u0ba8\u0b95\u0bb0\u0bcd", "place": "neighbourhood"}}, {"type": "node", "id": 3417090911, "lat": 12.8962755, "lon": 77.5537191, "tags": {"name": "Kalyani Nagara", "name:kn": "\u0c95\u0cb2\u0ccd\u0caf\u0cbe\u0ca3\u0cbf \u0ca8\u0c97\u0cb0", "place": "neighbourhood"}}, {"type": "node", "id": 3417117772, "lat": 12.9121916, "lon": 77.5476337, "tags": {"is_in": "Bengaluru", "name": "Chikkalasandra", "name:kn": "\u0c9a\u0cbf\u0c95\u0ccd\u0c95\u0cb2\u0cb8\u0c82\u0ca6\u0ccd\u0cb0", "name:ta": "\u0b9a\u0bbf\u0b95\u0bcd\u0bb2\u0bb2\u0b9a\u0ba8\u0bcd\u0ba4\u0bcd\u0bb0\u0bbe", "place": "suburb", "wikidata": "Q24936341", "wikipedia": "en:Chikkalasandra"}}, {"type": "node", "id": 3417123994, "lat": 12.9146164, "lon": 77.5661511, "tags": {"name": "Kadirenahalli", "name:kn": "\u0c95\u0ca6\u0cbf\u0cb0\u0cc7\u0ca8\u0cb9\u0cb3\u0ccd\u0cb3\u0cbf", "name:ta": "\u0b95\u0b9f\u0bbf\u0bb0\u0bc7\u0ba9\u0bb9\u0bb2\u0bcd\u0bb2\u0bbf", "place": "suburb"}}, {"type": "node", "id": 3417139770, "lat": 12.8997376, "lon": 77.6173368, "tags": {"name": "Lake City", "name:kn": "\u0cb2\u0cc7\u0c95\u0ccd \u0cb8\u0cbf\u0c9f\u0cbf", "place": "neighbourhood"}}, {"type": "node", "id": 3440756328, "lat": 12.9012176, "lon": 77.5550809, "tags": {"name": "Vittal Nagar", "name:kn": "\u0cb5\u0cbf\u0ca0\u0ccd\u0ca0\u0cb2 \u0ca8\u0c97\u0cb0", "name:ta": "\u0bb5\u0bbf\u0b9f\u0bcd\u0b9f\u0bbe\u0bb2\u0bcd \u0ba8\u0b95\u0bb0\u0bcd", "place": "neighbourhood"}}, {"type": "node", "id": 3500378973, "lat": 12.917609, "lon": 77.6885044}, {"type": "node", "id": 3500378976, "lat": 12.9173163, "lon": 77.6888091}, {"type": "node", "id": 3500378977, "lat": 12.9174718, "lon": 77.6884992}, {"type": "node", "id": 3500378978, "lat": 12.919717, "lon": 77.6884884}, {"type": "node", "id": 3500378980, "lat": 12.917227, "lon": 77.688987}, {"type": "node", "id": 3500378983, "lat": 12.9187588, "lon": 77.6884554}, {"type": "node", "id": 3500378985, "lat": 12.9190435, "lon": 77.6883522}, {"type": "node", "id": 3500378986, "lat": 12.9190383, "lon": 77.6884668}, {"type": "node", "id": 3504453413, "lat": 12.9219261, "lon": 77.6947846}, {"type": "node", "id": 3504453418, "lat": 12.9194771, "lon": 77.696575}, {"type": "node", "id": 3504453419, "lat": 12.9195395, "lon": 77.6947512}, {"type": "node", "id": 3504476487, "lat": 12.9199253, "lon": 77.6884948}, {"type": "node", "id": 3504509228, "lat": 12.9235025, "lon": 77.6919174}, {"type": "node", "id": 3507444983, "lat": 12.921376, "lon": 77.6203055}, {"type": "node", "id": 3507444984, "lat": 12.9213901, "lon": 77.6204483}, {"type": "node", "id": 3507444986, "lat": 12.92162, "lon": 77.6209089}, {"type": "node", "id": 3507448196, "lat": 12.9230825, "lon": 77.6232108}, {"type": "node", "id": 3507448198, "lat": 12.9235175, "lon": 77.6252265}, {"type": "node", "id": 3543575149, "lat": 12.9541188, "lon": 77.4993949}, {"type": "node", "id": 3553647379, "lat": 12.9205357, "lon": 77.5933285}, {"type": "node", "id": 3671232606, "lat": 12.8623654, "lon": 77.5930264}, {"type": "node", "id": 3671232607, "lat": 12.8622851, "lon": 77.5937668}, {"type": "node", "id": 3740872036, "lat": 12.9269039, "lon": 77.6701877, "tags": {"name": "Green Glen Layout", "name:kn": "\u0c97\u0ccd\u0cb0\u0cc0\u0ca8\u0ccd \u0c97\u0ccd\u0cb2\u0cc6\u0ca8\u0ccd \u0cb2\u0cc7\u0c94\u0c9f\u0ccd", "place": "neighbourhood"}}, {"type": "node", "id": 3798075106, "lat": 12.9137971, "lon": 77.5997453}, {"type": "node", "id": 3798075107, "lat": 12.9149215, "lon": 77.599733}, {"type": "node", "id": 3983485478, "lat": 12.8683303, "lon": 77.5142974, "tags": {"name": "Nagegowdanapalya", "name:kn": "\u0ca8\u0cbe\u0c97\u0cc7\u0c97\u0ccc\u0ca1\u0ca8\u0caa\u0cbe\u0cb3\u0ccd\u0caf", "name:ta": "\u0ba8\u0bbe\u0b95\u0bc7 \u0b95\u0bb5\u0bc1\u0b9f\u0bbe\u0ba9\u0bbe\u0baa\u0bbe\u0bb2\u0bcd\u0baf\u0bbe", "place": "neighbourhood"}}, {"type": "node", "id": 3983628502, "lat": 12.8819899, "lon": 77.5019592, "tags": {"name": "Gattigerepalya", "name:kn": "\u0c97\u0c9f\u0ccd\u0c9f\u0cbf\u0c97\u0cc6\u0cb0\u0cc6\u0caa\u0cbe\u0cb3\u0ccd\u0caf", "name:ta": "\u0b95\u0b9f\u0bcd\u0b9f\u0bbf\u0b95\u0bc7\u0bb0\u0bc7\u0baa\u0bbe\u0bb2\u0bcd\u0baf\u0bbe", "place": "neighbourhood"}}, {"type": "node", "id": 3983628610, "lat": 12.8971756, "lon": 77.5120658, "tags": {"name": "Ganakkal", "name:kn": "\u0c97\u0ca3\u0c95\u0cb2\u0ccd\u0cb2\u0cc1", "place": "suburb"}}, {"type": "node", "id": 3983628624, "lat": 12.8801983, "lon": 77.5144615, "tags": {"name": "Chikkegowdanpalya", "name:kn": "\u0c9a\u0cbf\u0c95\u0ccd\u0c95\u0cc6\u0c97\u0ccc\u0ca1\u0ca8\u0caa\u0cbe\u0cb3\u0ccd\u0caf", "name:ta": "\u0b9a\u0bbf\u0b95\u0bcd\u0b95\u0bc7\u0b95\u0bb5\u0bc1\u0b9f\u0ba9\u0bcd\u0baa\u0bbe\u0bb2\u0bcd\u0baf\u0bbe", "place": "neighbourhood"}}, {"type": "node", "id": 4042272648, "lat": 12.888953, "lon": 77.445539}, {"type": "node", "id": 4042272651, "lat": 12.8891137, "lon": 77.4442929}, {"type": "node", "id": 4042272660, "lat": 12.8894114, "lon": 77.4443608}, {"type": "node", "id": 4042272663, "lat": 12.8895012, "lon": 77.4438274}, {"type": "node", "id": 4042272664, "lat": 12.8896155, "lon": 77.4473693}, {"type": "node", "id": 4042272696, "lat": 12.8849047, "lon": 77.4435277}, {"type": "node", "id": 4042272697, "lat": 12.885152, "lon": 77.4430614}, {"type": "node", "id": 4042272699, "lat": 12.8853225, "lon": 77.4447414}, {"type": "node", "id": 4042272704, "lat": 12.8854896, "lon": 77.4453757}, {"type": "node", "id": 4042272710, "lat": 12.8859542, "lon": 77.4465997}, {"type": "node", "id": 4042272714, "lat": 12.8864488, "lon": 77.4476385}, {"type": "node", "id": 4042272728, "lat": 12.8869535, "lon": 77.4484785}, {"type": "node", "id": 4042272736, "lat": 12.8871439, "lon": 77.4384532}, {"type": "node", "id": 4042272752, "lat": 12.887913, "lon": 77.4399951}, {"type": "node", "id": 4042272755, "lat": 12.8880737, "lon": 77.4435249}, {"type": "node", "id": 4042272758, "lat": 12.8881682, "lon": 77.4387102}, {"type": "node", "id": 4042272771, "lat": 12.8887023, "lon": 77.440126}, {"type": "node", "id": 4076243857, "lat": 12.8773486, "lon": 77.6028031, "tags": {"name": "Hulimavu", "name:kn": "\u0cb9\u0cc1\u0cb3\u0cbf\u0cae\u0cbe\u0cb5\u0cc1", "name:ta": "\u0bb9\u0bc1\u0bb2\u0bbf\u0bae\u0bbe\u0bb5\u0bc1", "place": "suburb", "wikidata": "Q4801619", "wikipedia": "en:Hulimavu"}}, {"type": "node", "id": 4118271102, "lat": 12.9154321, "lon": 77.6892802}, {"type": "node", "id": 4118271103, "lat": 12.9155053, "lon": 77.6907822}, {"type": "node", "id": 4118271104, "lat": 12.9156047, "lon": 77.6919772}, {"type": "node", "id": 4118271105, "lat": 12.9158086, "lon": 77.6937702}, {"type": "node", "id": 4118271106, "lat": 12.9174556, "lon": 77.6955994}, {"type": "node", "id": 4118271107, "lat": 12.9174295, "lon": 77.6963076}, {"type": "node", "id": 4118271108, "lat": 12.9161589, "lon": 77.6937005}, {"type": "node", "id": 4118271110, "lat": 12.9170191, "lon": 77.689417}, {"type": "node", "id": 4118271111, "lat": 12.9170765, "lon": 77.6914863}, {"type": "node", "id": 4118271112, "lat": 12.9171027, "lon": 77.6918792}, {"type": "node", "id": 4118271113, "lat": 12.9172047, "lon": 77.6914903}, {"type": "node", "id": 4118271114, "lat": 12.9172204, "lon": 77.6909888}, {"type": "node", "id": 4118271117, "lat": 12.9172831, "lon": 77.6945534}, {"type": "node", "id": 4118271118, "lat": 12.9175079, "lon": 77.6905301}, {"type": "node", "id": 4118271119, "lat": 12.9175498, "lon": 77.6909593}, {"type": "node", "id": 4118271120, "lat": 12.9175995, "lon": 77.6948418}, {"type": "node", "id": 4118271121, "lat": 12.9176752, "lon": 77.6944891}, {"type": "node", "id": 4118271122, "lat": 12.9176805, "lon": 77.6955566}, {"type": "node", "id": 4118271123, "lat": 12.9177223, "lon": 77.694827}, {"type": "node", "id": 4118271130, "lat": 12.919419, "lon": 77.6964233}, {"type": "node", "id": 4233041619, "lat": 12.8742546, "lon": 77.5837252, "tags": {"name": "Kothnur", "name:kn": "\u0c95\u0ccb\u0ca4\u0ca8\u0cc2\u0cb0\u0cc1", "name:ta": "\u0b95\u0bca\u0ba4\u0bcd\u0ba9\u0bc2\u0bb0\u0bcd", "place": "suburb", "wikidata": "Q2236908", "wikipedia": "en:Kothnur"}}, {"type": "node", "id": 4233041620, "lat": 12.8775024, "lon": 77.5845488, "tags": {"name": "Krishna Nagar", "name:kn": "\u0c95\u0cc3\u0cb7\u0ccd\u0ca3 \u0ca8\u0c97\u0cb0", "name:ta": "\u0b95\u0bbf\u0bb0\u0bc1\u0bb7\u0bcd\u0ba3\u0bbe \u0ba8\u0b95\u0bb0\u0bcd", "place": "neighbourhood"}}, {"type": "node", "id": 4304331149, "lat": 12.8843419, "lon": 77.6494922, "tags": {"name": "AECS Layout, A block", "name:kn": "\u0c8e\u0c87\u0cb8\u0cbf\u0c8e\u0cb8\u0ccd \u0cb2\u0cc7\u0c94\u0c9f\u0ccd, \u0c8e \u0cac\u0ccd\u0cb2\u0cbe\u0c95\u0ccd", "place": "neighbourhood"}}, {"type": "node", "id": 4378806792, "lat": 12.9009363, "lon": 77.5935201}, {"type": "node", "id": 4378806793, "lat": 12.901139, "lon": 77.5935922}, {"type": "node", "id": 4378806794, "lat": 12.9012631, "lon": 77.5936898}, {"type": "node", "id": 4378806795, "lat": 12.9014823, "lon": 77.5939487}, {"type": "node", "id": 4378806811, "lat": 12.9037307, "lon": 77.5989967}, {"type": "node", "id": 4378806812, "lat": 12.9043095, "lon": 77.6002676}, {"type": "node", "id": 4378806813, "lat": 12.9043968, "lon": 77.5991018}, {"type": "node", "id": 4378806814, "lat": 12.9045357, "lon": 77.599216}, {"type": "node", "id": 4397421776, "lat": 12.9207575, "lon": 77.6033328, "tags": {"name": "Gurappana Palya", "name:kn": "\u0c97\u0cc1\u0cb0\u0caa\u0ccd\u0caa\u0ca8 \u0caa\u0cbe\u0cb3\u0ccd\u0caf", "name:ta": "\u0b95\u0bc1\u0bb0\u0baa\u0bcd\u0baa\u0ba9 \u0baa\u0bbe\u0bb2\u0bcd\u0baf\u0bbe", "place": "neighbourhood"}}, {"type": "node", "id": 4397429405, "lat": 12.921647, "lon": 77.5969069}, {"type": "node", "id": 4397429406, "lat": 12.9216548, "lon": 77.5957563}, {"type": "node", "id": 4436681200, "lat": 12.8454948, "lon": 77.5831295, "tags": {"name:en": "Weavers Colony", "name:kn": "\u0cb5\u0cc0\u0cb5\u0cb0\u0ccd\u0cb8\u0ccd \u0c95\u0cbe\u0cb2\u0cca\u0ca8\u0cbf", "place": "neighbourhood"}}, {"type": "node", "id": 4474488079, "lat": 12.917928, "lon": 77.6822988}, {"type": "node", "id": 4474497312, "lat": 12.9201784, "lon": 77.6878087}, {"type": "node", "id": 4474497320, "lat": 12.9222855, "lon": 77.6879096}, {"type": "node", "id": 4803663651, "lat": 12.9244154, "lon": 77.629662}, {"type": "node", "id": 4803663652, "lat": 12.9244725, "lon": 77.6287541}, {"type": "node", "id": 4908513642, "lat": 12.897971, "lon": 77.5700846, "tags": {"name": "Yelachenahalli", "name:kn": "\u0caf\u0cb2\u0c9a\u0cc7\u0ca8\u0cb9\u0cb3\u0ccd\u0cb3\u0cbf", "name:ta": "\u0b8e\u0bb2\u0b9a\u0bcd\u0b9a\u0bc7\u0ba9\u0bb9\u0bb2\u0bcd\u0bb2\u0bbf", "place": "neighbourhood"}}, {"type": "node", "id": 5005237328, "lat": 12.8565317, "lon": 77.5877237, "tags": {"name": "Gottigere", "name:kn": "\u0c97\u0cca\u0c9f\u0ccd\u0c9f\u0cbf\u0c97\u0cc6\u0cb0\u0cc6", "name:ml": "\u0d17\u0d4b\u0d1f\u0d4d\u0d1f\u0d3f\u0d17\u0d46\u0d30\u0d46", "name:ta": "\u0b95\u0bca\u0b9f\u0bcd\u0b9f\u0bbf\u0b95\u0bc7\u0bb0\u0bc7", "place": "suburb", "wikidata": "Q1706795", "wikipedia": "en:Gottigere"}}, {"type": "node", "id": 5277512119, "lat": 12.9062295, "lon": 77.4917699, "tags": {"name": "Concept City", "name:kn": "\u0c95\u0cbe\u0ca8\u0ccd\u0cb8\u0cc6\u0caa\u0ccd\u0c9f\u0ccd \u0cb8\u0cbf\u0c9f\u0cbf", "place": "neighbourhood"}}, {"type": "node", "id": 5337406394, "lat": 12.8854511, "lon": 77.5506003}, {"type": "node", "id": 5337406395, "lat": 12.8864143, "lon": 77.5483912}, {"type": "node", "id": 5337406396, "lat": 12.8865288, "lon": 77.5484861}, {"type": "node", "id": 5337406397, "lat": 12.8857099, "lon": 77.5497309}, {"type": "node", "id": 5810244718, "lat": 12.8886141, "lon": 77.5338176, "tags": {"name": "Karishma Hills", "name:kn": "\u0c95\u0cb0\u0cbf\u0cb6\u0ccd\u0cae \u0cb9\u0cbf\u0cb2\u0ccd\u0cb8\u0ccd", "name:ta": "\u0b95\u0bb0\u0bbf\u0bb7\u0bcd\u0bae\u0bbe \u0bb9\u0bbf\u0bb2\u0bcd\u0bb8\u0bcd", "place": "neighbourhood"}}, {"type": "node", "id": 5864949047, "lat": 12.9239662, "lon": 77.6890108}, {"type": "node", "id": 5928214835, "lat": 12.8853694, "lon": 77.5509468}, {"type": "node", "id": 5928214836, "lat": 12.8854622, "lon": 77.5509725}, {"type": "node", "id": 5965992536, "lat": 12.9016188, "lon": 77.5955947}, {"type": "node", "id": 6017945714, "lat": 12.9173303, "lon": 77.667161, "tags": {"name": "Ambalipura", "name:kn": "\u0c85\u0c82\u0cac\u0cb2\u0cc0\u0caa\u0cc1\u0cb0", "name:ta": "\u0b85\u0bae\u0bcd\u0baa\u0bb2\u0bbf\u0baa\u0bc1\u0bb0\u0bbe", "place": "suburb"}}, {"type": "node", "id": 6566382745, "lat": 12.9019247, "lon": 77.5978544}, {"type": "node", "id": 6566382746, "lat": 12.902462, "lon": 77.5965616}, {"type": "node", "id": 6566382747, "lat": 12.9020541, "lon": 77.5964141}, {"type": "node", "id": 6566382748, "lat": 12.9016646, "lon": 77.5963993}, {"type": "node", "id": 6566382765, "lat": 12.9014267, "lon": 77.5963175}, {"type": "node", "id": 6566382766, "lat": 12.9011861, "lon": 77.5962263}, {"type": "node", "id": 6566382767, "lat": 12.9012855, "lon": 77.5955504}, {"type": "node", "id": 6566428930, "lat": 12.8930758, "lon": 77.5961351, "tags": {"name": "Panduranga Nagar", "name:kn": "\u0caa\u0cbe\u0c82\u0ca1\u0cc1\u0cb0\u0c82\u0c97 \u0ca8\u0c97\u0cb0", "name:ta": "\u0baa\u0bbe\u0ba3\u0bcd\u0b9f\u0bc1\u0bb0\u0b99\u0bcd\u0b95\u0bbe \u0ba8\u0b95\u0bb0\u0bcd", "place": "neighbourhood"}}, {"type": "node", "id": 6566428931, "lat": 12.8872086, "lon": 77.5960493, "tags": {"name": "Arekere", "name:kn": "\u0c85\u0cb0\u0c95\u0cc6\u0cb0\u0cc6", "name:ml": "\u0d05\u0d30\u0d46\u0d15\u0d4d\u0d15\u0d46\u0d30\u0d46", "name:ta": "\u0b85\u0bb0\u0bbf\u0b95\u0bcd\u0b95\u0bc7\u0bb0\u0bc7", "place": "suburb"}}, {"type": "node", "id": 6566429030, "lat": 12.8985365, "lon": 77.5914978}, {"type": "node", "id": 6566429057, "lat": 12.8981504, "lon": 77.5915549}, {"type": "node", "id": 6566429100, "lat": 12.8994304, "lon": 77.5917388}, {"type": "node", "id": 6566429155, "lat": 12.8998417, "lon": 77.5923263}, {"type": "node", "id": 6566429290, "lat": 12.9016306, "lon": 77.5942951}, {"type": "node", "id": 6566429291, "lat": 12.8999285, "lon": 77.5924712}, {"type": "node", "id": 6566429292, "lat": 12.8995285, "lon": 77.5918034}, {"type": "node", "id": 6566429293, "lat": 12.8994841, "lon": 77.5918356}, {"type": "node", "id": 7236242195, "lat": 12.8792861, "lon": 77.5697529, "tags": {"name": "Konanakunte", "name:kn": "\u0c95\u0ccb\u0ca3\u0ca8\u0c95\u0cc1\u0c82\u0c9f\u0cc6", "name:ta": "\u0b95\u0bcb\u0ba9\u0bbe\u0ba9\u0b95\u0bc1\u0ba9\u0bcd\u0b9f\u0bc7", "place": "suburb", "population": "13262", "postal_code": "560062", "wikipedia": "en:Konanakunte"}}, {"type": "node", "id": 7277381422, "lat": 12.9246713, "lon": 77.6311604}, {"type": "node", "id": 7277381423, "lat": 12.9245563, "lon": 77.6304257}, {"type": "node", "id": 7289130016, "lat": 12.9236489, "lon": 77.4869639, "tags": {"name": "Kengeri Satelite Town", "name:kn": "\u0c95\u0cc6\u0c82\u0c97\u0cc7\u0cb0\u0cbf \u0cb8\u0ccd\u0caf\u0cbe\u0c9f\u0cbf\u0cb2\u0cc8\u0c9f\u0ccd \u0c9f\u0ccc\u0ca8\u0ccd", "place": "neighbourhood"}}, {"type": "node", "id": 7289170281, "lat": 12.9437937, "lon": 77.4779463, "tags": {"alt_name": "Vishweshwariah Layout", "full_name": "Sir M Vishweshwaraiah Layout", "name": "Sir MV Layout", "place": "suburb", "short_name": "SMVL"}}, {"type": "node", "id": 7304848925, "lat": 12.9071889, "lon": 77.6005259}, {"type": "node", "id": 7304848926, "lat": 12.9058164, "lon": 77.6015934}, {"type": "node", "id": 7304848929, "lat": 12.9052281, "lon": 77.601808}, {"type": "node", "id": 7304848930, "lat": 12.90342, "lon": 77.6013987}, {"type": "node", "id": 7304848931, "lat": 12.9036482, "lon": 77.600155}, {"type": "node", "id": 7304848948, "lat": 12.9040098, "lon": 77.5955558, "tags": {"alt_name": "Dollars Layout", "name": "Dollars Colony", "name:kn": "\u0ca1\u0cbe\u0cb2\u0cb0\u0ccd\u0cb8\u0ccd \u0c95\u0cbe\u0cb2\u0ccb\u0ca8\u0cbf", "name:ta": "\u0b9f\u0bbe\u0bb2\u0bb0\u0bcd\u0bb8\u0bcd \u0b95\u0bbe\u0bb2\u0ba9\u0bbf", "place": "neighbourhood"}}, {"type": "node", "id": 7304848961, "lat": 12.9016633, "lon": 77.598348}, {"type": "node", "id": 7304848962, "lat": 12.901394, "lon": 77.5989005}, {"type": "node", "id": 7617355938, "lat": 12.8966996, "lon": 77.6124269, "tags": {"name": "Kodichikkanahalli", "name:kn": "\u0c95\u0cca\u0ca1\u0cbf\u0c9a\u0cbf\u0c95\u0ccd\u0c95\u0ca8\u0cb9\u0cb3\u0ccd\u0cb3\u0cbf", "place": "neighbourhood"}}, {"type": "node", "id": 7617355940, "lat": 12.861385, "lon": 77.5929809, "tags": {"place": "neighbourhood"}}, {"type": "node", "id": 7682106735, "lat": 12.862044, "lon": 77.5920823}, {"type": "node", "id": 7682106736, "lat": 12.8612151, "lon": 77.5919482}, {"type": "node", "id": 7682106737, "lat": 12.860543, "lon": 77.591621}, {"type": "node", "id": 7682106738, "lat": 12.8597828, "lon": 77.5935959}, {"type": "node", "id": 7682106739, "lat": 12.8605796, "lon": 77.5940779}, {"type": "node", "id": 7682106740, "lat": 12.8612713, "lon": 77.5940055}, {"type": "node", "id": 7682106741, "lat": 12.8617955, "lon": 77.5940832}, {"type": "node", "id": 7682106742, "lat": 12.8621146, "lon": 77.5946867}, {"type": "node", "id": 7682106743, "lat": 12.8622636, "lon": 77.5941074}, {"type": "node", "id": 7682106745, "lat": 12.8624937, "lon": 77.5922352}, {"type": "node", "id": 7682106746, "lat": 12.8620937, "lon": 77.5919589}, {"type": "node", "id": 8320252546, "lat": 12.9149242, "lon": 77.6244128}, {"type": "node", "id": 8320252547, "lat": 12.9132465, "lon": 77.6253739}, {"type": "node", "id": 8320252560, "lat": 12.91064, "lon": 77.6238263, "tags": {"name": "Roopena Agrahara", "name:kn": "\u0cb0\u0cc2\u0caa\u0cc7\u0ca8 \u0c85\u0c97\u0ccd\u0cb0\u0cb9\u0cbe\u0cb0", "place": "neighbourhood"}}, {"type": "node", "id": 8699676979, "lat": 12.9202077, "lon": 77.5255006, "tags": {"name": "Gattigere Extension", "name:kn": "\u0c97\u0c9f\u0ccd\u0c9f\u0cbf\u0c97\u0cc6\u0cb0\u0cc6 \u0cac\u0ca1\u0cbe\u0cb5\u0ca3\u0cc6", "place": "neighbourhood"}}, {"type": "node", "id": 8699676980, "lat": 12.9186123, "lon": 77.5281673, "tags": {"name": "Giridhama Layout", "place": "neighbourhood"}}, {"type": "node", "id": 8699676981, "lat": 12.9266771, "lon": 77.5249278, "tags": {"name": "Aditya Layout", "place": "neighbourhood"}}, {"type": "node", "id": 8699676985, "lat": 12.9196528, "lon": 77.5202202, "tags": {"name": "BEML Layout 3rd Stage", "place": "neighbourhood"}}, {"type": "node", "id": 8699676986, "lat": 12.9083587, "lon": 77.5209058, "tags": {"name": "BEML Layout 5th Stage", "place": "neighbourhood"}}, {"type": "node", "id": 8699676987, "lat": 12.9132852, "lon": 77.506908, "tags": {"name": "Krishna Garden Layout", "name:ta": "\u0b95\u0bbf\u0bb0\u0bc1\u0bb7\u0bcd\u0ba3\u0bbe \u0b95\u0bbe\u0bb0\u0bcd\u0b9f\u0ba9\u0bcd \u0bb2\u0bc7\u0b85\u0bb5\u0bc1\u0b9f\u0bcd", "place": "neighbourhood"}}, {"type": "node", "id": 8699676988, "lat": 12.9071376, "lon": 77.5093729, "tags": {"name": "Concorde Layout", "place": "neighbourhood"}}, {"type": "node", "id": 8700678298, "lat": 12.9184375, "lon": 77.5092496, "tags": {"name": "BHEL Layout", "place": "neighbourhood"}}, {"type": "node", "id": 8700678299, "lat": 12.9143909, "lon": 77.4982509, "tags": {"name": "BEML Layout 7th Phase", "place": "neighbourhood"}}, {"type": "node", "id": 8700678300, "lat": 12.9004224, "lon": 77.4871294, "tags": {"name": "Kodipalya", "name:kn": "\u0c95\u0ccb\u0ca1\u0cbf\u0caa\u0cbe\u0cb3\u0ccd\u0caf", "place": "neighbourhood"}}, {"type": "node", "id": 8711415095, "lat": 12.9216416, "lon": 77.5142194, "tags": {"name": "Halagevaderahalli", "place": "neighbourhood"}}, {"type": "node", "id": 8711415096, "lat": 12.8679232, "lon": 77.5962356, "tags": {"name": "Nobo Nagar", "name:ta": "\u0ba8\u0bcb\u0baa\u0bcb \u0ba8\u0b95\u0bb0\u0bcd", "place": "neighbourhood"}}, {"type": "node", "id": 8711415097, "lat": 12.9053658, "lon": 77.5066931, "tags": {"name": "Reflex Layout", "place": "neighbourhood"}}, {"type": "node", "id": 8711415098, "lat": 12.901464, "lon": 77.5096707, "tags": {"name": "Banashankari 6th Stage, 11th Block", "place": "neighbourhood"}}, {"type": "node", "id": 8948240437, "lat": 12.9296433, "lon": 77.6291558}, {"type": "node", "id": 8948240438, "lat": 12.9286159, "lon": 77.6290324}, {"type": "node", "id": 8948240449, "lat": 12.9312245, "lon": 77.6231533}, {"type": "node", "id": 8948240450, "lat": 12.930053, "lon": 77.6226742}, {"type": "node", "id": 9525307151, "lat": 12.8849391, "lon": 77.4418545}, {"type": "node", "id": 9591485754, "lat": 12.9201064, "lon": 77.6879191}, {"type": "node", "id": 9591485755, "lat": 12.9200883, "lon": 77.6884999}, {"type": "node", "id": 9760169049, "lat": 12.9284552, "lon": 77.5861417}, {"type": "node", "id": 9790284773, "lat": 12.9272376, "lon": 77.6288919}, {"type": "node", "id": 9790284784, "lat": 12.9277245, "lon": 77.6327822, "tags": {"is_in": "Koramangala", "name": "Koramangala 1st Block", "name:kn": "\u0c95\u0ccb\u0cb0\u0cae\u0c82\u0c97\u0cb2 \u0ce7\u0ca8\u0cc7 \u0cac\u0ccd\u0cb2\u0cbe\u0c95\u0ccd", "place": "neighbourhood"}}, {"type": "node", "id": 9790284785, "lat": 12.9302442, "lon": 77.6221819}, {"type": "node", "id": 9790284786, "lat": 12.9303356, "lon": 77.6275122}, {"type": "node", "id": 9790284787, "lat": 12.930578, "lon": 77.6248375}, {"type": "node", "id": 9795166503, "lat": 12.9183247, "lon": 77.6238111}, {"type": "node", "id": 9817309114, "lat": 12.9189039, "lon": 77.6239752}, {"type": "node", "id": 9817309116, "lat": 12.9188778, "lon": 77.624014}, {"type": "node", "id": 9828605791, "lat": 12.9259181, "lon": 77.6325354, "tags": {"name": "SBI Colony", "place": "neighbourhood"}}, {"type": "node", "id": 9851225174, "lat": 12.8979703, "lon": 77.6085699, "tags": {"name": "Bilekahalli", "name:kn": "\u0cac\u0cbf\u0cb3\u0cc7\u0c95\u0cb9\u0cb3\u0ccd\u0cb3\u0cbf", "name:ml": "\u0d2c\u0d3f\u0d32\u0d47\u0d15\u0d39\u0d33\u0d4d\u0d33\u0d3f", "name:ta": "\u0baa\u0bc8\u0bb2\u0bc7\u0b95\u0bcd\u0b95\u0bb9\u0bb2\u0bcd\u0bb2\u0bbf", "place": "suburb"}}, {"type": "node", "id": 9851225180, "lat": 12.8929425, "lon": 77.6077625, "tags": {"name": "Vijaya Bank Layout", "place": "neighbourhood"}}, {"type": "node", "id": 9853785693, "lat": 12.9166752, "lon": 77.6331087}, {"type": "node", "id": 9853785694, "lat": 12.9166114, "lon": 77.6337114}, {"type": "node", "id": 9853785697, "lat": 12.9168261, "lon": 77.6316814}, {"type": "node", "id": 9853785698, "lat": 12.9167716, "lon": 77.632197}, {"type": "node", "id": 9853869178, "lat": 12.9180216, "lon": 77.623727}, {"type": "node", "id": 9853869179, "lat": 12.9180242, "lon": 77.623841}, {"type": "node", "id": 9858668204, "lat": 12.9164386, "lon": 77.6236439}, {"type": "node", "id": 9858668206, "lat": 12.9152869, "lon": 77.624267}, {"type": "node", "id": 9858668210, "lat": 12.9162488, "lon": 77.6237221}, {"type": "node", "id": 9923455883, "lat": 12.9159158, "lon": 77.6947734}, {"type": "node", "id": 9923476594, "lat": 12.9182686, "lon": 77.6823836}, {"type": "node", "id": 9930165116, "lat": 12.9257194, "lon": 77.6204011}, {"type": "node", "id": 10174066576, "lat": 12.921181, "lon": 77.6690391}, {"type": "node", "id": 10174066577, "lat": 12.9195047, "lon": 77.6684628}, {"type": "node", "id": 10174066578, "lat": 12.9192439, "lon": 77.6683635}, {"type": "node", "id": 10220948577, "lat": 12.8810223, "lon": 77.6490068, "tags": {"name": "Singasandra", "name:kn": "\u0cb8\u0cbf\u0c82\u0c97\u0cb8\u0c82\u0ca6\u0ccd\u0cb0", "name:ta": "\u0b9a\u0bbf\u0b99\u0bcd\u0b95\u0b9a\u0ba8\u0bcd\u0ba4\u0bcd\u0bb0\u0bbe", "place": "suburb"}}, {"type": "node", "id": 10220948578, "lat": 12.9014999, "lon": 77.6409441, "tags": {"name": "ITI Layout", "name:ta": "\u0b90\u0b9f\u0bbf\u0b90 \u0bb2\u0bc7\u0b85\u0bb5\u0bc1\u0b9f\u0bcd", "place": "neighbourhood"}}, {"type": "node", "id": 10220948588, "lat": 12.9044856, "lon": 77.6654434, "tags": {"name": "Haralur", "name:kn": "\u0cb9\u0cb0\u0cb3\u0cc2\u0cb0\u0cc1", "name:ta": "\u0bb9\u0bb0\u0bb2\u0bc2\u0bb0\u0bcd", "place": "suburb"}}, {"type": "node", "id": 10220948589, "lat": 12.8974892, "lon": 77.6250869, "tags": {"name": "Hongasandra", "name:ta": "\u0bb9\u0bca\u0b99\u0bcd\u0b95\u0b9a\u0ba8\u0bcd\u0ba4\u0bcd\u0bb0\u0bbe", "place": "suburb"}}, {"type": "node", "id": 10228903702, "lat": 12.9195118, "lon": 77.5859128}, {"type": "node", "id": 10228903706, "lat": 12.9198947, "lon": 77.5859176}, {"type": "node", "id": 10233407655, "lat": 12.8849238, "lon": 77.5154846, "tags": {"name": "Banashankari 6th Stage", "name:ta": "\u0baa\u0ba9\u0b9a\u0b99\u0bcd\u0b95\u0bb0\u0bbf \u0b95\u0b9f\u0bcd\u0b9f\u0bae\u0bcd 6", "place": "suburb"}}, {"type": "node", "id": 10233431430, "lat": 12.8963963, "lon": 77.5377864, "tags": {"name": "Subramanyapura", "name:kn": "\u0cb8\u0cc1\u0cac\u0ccd\u0cb0\u0cae\u0ca3\u0ccd\u0caf\u0caa\u0cc1\u0cb0", "name:ta": "\u0b9a\u0bc1\u0baa\u0bcd\u0bb0\u0bae\u0ba3\u0bcd\u0baf\u0baa\u0bc1\u0bb0\u0bbe", "place": "suburb"}}, {"type": "node", "id": 10235931666, "lat": 12.8046036, "lon": 77.7583337, "tags": {"name": "Suryanagar Phase 3", "place": "suburb"}}, {"type": "node", "id": 10235931761, "lat": 12.7731527, "lon": 77.6864397, "tags": {"name": "Suryanagar Phase 2", "place": "suburb"}}, {"type": "node", "id": 10245038176, "lat": 12.9083759, "lon": 77.512241, "tags": {"name": "Srinivasapura", "name:kn": "\u0cb6\u0ccd\u0cb0\u0cc0\u0ca8\u0cbf\u0cb5\u0cbe\u0cb8\u0caa\u0cc1\u0cb0", "name:ta": "\u0bb8\u0bcd\u0bb0\u0bc0\u0ba8\u0bbf\u0bb5\u0bbe\u0b9a\u0baa\u0bc1\u0bb0\u0bbe", "place": "suburb"}}, {"type": "node", "id": 10245038177, "lat": 12.9029431, "lon": 77.519837, "tags": {"name": "Channasandra", "name:kn": "\u0c9a\u0ca8\u0ccd\u0ca8\u0cb8\u0c82\u0ca6\u0ccd\u0cb0", "name:ta": "\u0b9a\u0ba9\u0bcd\u0ba9\u0b9a\u0ba8\u0bcd\u0ba4\u0bcd\u0bb0\u0bbe", "place": "neighbourhood"}}, {"type": "node", "id": 10246363084, "lat": 12.9043601, "lon": 77.4471116, "tags": {"name": "Hunasemaradapalya", "place": "neighbourhood"}}, {"type": "node", "id": 10293635628, "lat": 12.9168292, "lon": 77.6316377}, {"type": "node", "id": 10293635629, "lat": 12.9168739, "lon": 77.6316449}, {"type": "node", "id": 10293635630, "lat": 12.9169236, "lon": 77.6303137}, {"type": "node", "id": 10293635631, "lat": 12.9172295, "lon": 77.630395}, {"type": "node", "id": 10293635632, "lat": 12.917036, "lon": 77.6287374}, {"type": "node", "id": 10293686912, "lat": 12.9215225, "lon": 77.5957571}, {"type": "node", "id": 10293686917, "lat": 12.9211888, "lon": 77.5957527}, {"type": "node", "id": 10295524778, "lat": 12.9250003, "lon": 77.6332958}, {"type": "node", "id": 10295524781, "lat": 12.9249621, "lon": 77.6330336}, {"type": "node", "id": 10295524782, "lat": 12.9249076, "lon": 77.6326682}, {"type": "node", "id": 10295524800, "lat": 12.9293976, "lon": 77.6320486}, {"type": "node", "id": 10295524801, "lat": 12.9293766, "lon": 77.631948, "tags": {"access": "private", "barrier": "gate"}}, {"type": "node", "id": 10295524808, "lat": 12.9248821, "lon": 77.6324973}, {"type": "node", "id": 10295532209, "lat": 12.9248378, "lon": 77.6322002}, {"type": "node", "id": 10295532210, "lat": 12.9246922, "lon": 77.6312659}, {"type": "node", "id": 10295532216, "lat": 12.926072, "lon": 77.628726}, {"type": "node", "id": 10295532220, "lat": 12.927775, "lon": 77.6289683}, {"type": "node", "id": 10295532221, "lat": 12.9278104, "lon": 77.6289734, "tags": {"access": "private", "barrier": "gate"}}, {"type": "node", "id": 10295532223, "lat": 12.9255548, "lon": 77.6286523}, {"type": "node", "id": 10295532225, "lat": 12.9262588, "lon": 77.6287525, "tags": {"access": "private", "barrier": "gate"}}, {"type": "node", "id": 10295532230, "lat": 12.9249114, "lon": 77.6276681}, {"type": "node", "id": 10295532233, "lat": 12.9248131, "lon": 77.6279027}, {"type": "node", "id": 10295532235, "lat": 12.9250363, "lon": 77.6283691}, {"type": "node", "id": 10295532237, "lat": 12.9248764, "lon": 77.6270607}, {"type": "node", "id": 10295532238, "lat": 12.9256574, "lon": 77.6251836}, {"type": "node", "id": 10295532242, "lat": 12.92383, "lon": 77.626904}, {"type": "node", "id": 10295532245, "lat": 12.9257412, "lon": 77.6249821}, {"type": "node", "id": 10295532246, "lat": 12.9235246, "lon": 77.6252647}, {"type": "node", "id": 10295532254, "lat": 12.926082, "lon": 77.6241022}, {"type": "node", "id": 10295532256, "lat": 12.9232487, "lon": 77.623981}, {"type": "node", "id": 10295532260, "lat": 12.9228299, "lon": 77.6227504}, {"type": "node", "id": 10295532261, "lat": 12.9255418, "lon": 77.6199595}, {"type": "node", "id": 10295532263, "lat": 12.9247616, "lon": 77.6182552}, {"type": "node", "id": 10295532269, "lat": 12.9219441, "lon": 77.6214071}, {"type": "node", "id": 10295532280, "lat": 12.9220927, "lon": 77.6216354}, {"type": "node", "id": 10295532281, "lat": 12.9230999, "lon": 77.620393, "tags": {"name": "Sidhartha Colony", "place": "neighbourhood"}}, {"type": "node", "id": 10296378579, "lat": 12.9197541, "lon": 77.6383148}, {"type": "node", "id": 10296378580, "lat": 12.9204856, "lon": 77.6384416}, {"type": "node", "id": 10296378581, "lat": 12.9171607, "lon": 77.6382137}, {"type": "node", "id": 10296378582, "lat": 12.9171743, "lon": 77.6379199}, {"type": "node", "id": 10296378583, "lat": 12.9173229, "lon": 77.6379266}, {"type": "node", "id": 10296378584, "lat": 12.9173128, "lon": 77.6382256}, {"type": "node", "id": 10296378588, "lat": 12.9221405, "lon": 77.6479366, "tags": {"name": "Agara", "name:kn": "\u0c85\u0c97\u0cb0", "name:ml": "\u0d05\u0d17\u0d3e\u0d30", "name:ta": "\u0b85\u0b95\u0bb0\u0bbe", "place": "neighbourhood"}}, {"type": "node", "id": 10296378602, "lat": 12.9173995, "lon": 77.6284126}, {"type": "node", "id": 10296405854, "lat": 12.9275598, "lon": 77.6374599}, {"type": "node", "id": 10296405855, "lat": 12.9281689, "lon": 77.6368377}, {"type": "node", "id": 10296405856, "lat": 12.9284957, "lon": 77.6361671}, {"type": "node", "id": 10296405859, "lat": 12.9285183, "lon": 77.6360917}, {"type": "node", "id": 10296405860, "lat": 12.9293924, "lon": 77.6342936}, {"type": "node", "id": 10296405867, "lat": 12.9294669, "lon": 77.6341622}, {"type": "node", "id": 10296405868, "lat": 12.929744, "lon": 77.6335573}, {"type": "node", "id": 10296405894, "lat": 12.9275049, "lon": 77.6375082}, {"type": "node", "id": 10296405895, "lat": 12.9272775, "lon": 77.6377174}, {"type": "node", "id": 10296405896, "lat": 12.9259024, "lon": 77.6374693}, {"type": "node", "id": 10296405898, "lat": 12.9258449, "lon": 77.6374385}, {"type": "node", "id": 10296405904, "lat": 12.9254567, "lon": 77.6370348}, {"type": "node", "id": 10296405905, "lat": 12.9253246, "lon": 77.6373795}, {"type": "node", "id": 10296405906, "lat": 12.9256044, "lon": 77.637413}, {"type": "node", "id": 10296405908, "lat": 12.9254933, "lon": 77.6365949}, {"type": "node", "id": 10296405909, "lat": 12.9255168, "lon": 77.6367478}, {"type": "node", "id": 10296405910, "lat": 12.9254802, "lon": 77.6369624}, {"type": "node", "id": 10296405913, "lat": 12.9250793, "lon": 77.6336941}, {"type": "node", "id": 10296405914, "lat": 12.9255024, "lon": 77.6365064}, {"type": "node", "id": 10302675420, "lat": 12.929464, "lon": 77.6218763}, {"type": "node", "id": 10302675423, "lat": 12.9254805, "lon": 77.6202018}, {"type": "node", "id": 10632956835, "lat": 12.9044961, "lon": 77.6415825, "tags": {"name": "Yellukunte", "name:kn": "\u0caf\u0cb2\u0ccd\u0cb2\u0cc1\u0c95\u0cc1\u0c82\u0c9f\u0cc6", "place": "neighbourhood"}}, {"type": "node", "id": 10676129241, "lat": 12.9007678, "lon": 77.6577616, "tags": {"name": "Royal Placid Layout", "place": "neighbourhood"}}, {"type": "node", "id": 10702267161, "lat": 12.9265141, "lon": 77.7009129, "tags": {"name": "Bhoganahalli", "name:kn": "\u0cad\u0ccb\u0c97\u0ca8\u0cb9\u0cb3\u0ccd\u0cb3\u0cbf", "name:ta": "\u0baa\u0bcb\u0b95\u0ba9\u0bb9\u0bb2\u0bcd\u0bb2\u0bbf", "place": "suburb"}}, {"type": "node", "id": 10761806275, "lat": 12.9197902, "lon": 77.4894315, "tags": {"name": "BDA Jnanabharathi Residential Enclave", "place": "neighbourhood"}}, {"type": "node", "id": 10761808764, "lat": 12.9139498, "lon": 77.4917114, "tags": {"name": "Vijayashree Layout", "name:ta": "\u0bb5\u0bbf\u0b9c\u0baf\u0bb7\u0bcd\u0bb0\u0bc0 \u0bb2\u0bc7\u0b85\u0bb5\u0bc1\u0b9f\u0bcd", "place": "neighbourhood"}}, {"type": "node", "id": 10763445357, "lat": 12.9233875, "lon": 77.5301421, "tags": {"name": "Krishnappa Layout", "name:kn": "\u0c95\u0cc3\u0cb7\u0ccd\u0ca3\u0caa\u0ccd\u0caa \u0cac\u0ca1\u0cbe\u0cb5\u0ca3\u0cc6", "place": "neighbourhood"}}, {"type": "node", "id": 10792812735, "lat": 12.9169396, "lon": 77.5837109}, {"type": "node", "id": 10792812738, "lat": 12.9169367, "lon": 77.5839334}, {"type": "node", "id": 10792812739, "lat": 12.9169404, "lon": 77.5835878}, {"type": "node", "id": 10792812742, "lat": 12.9169437, "lon": 77.5833437}, {"type": "node", "id": 10792812748, "lat": 12.9169964, "lon": 77.5780074}, {"type": "node", "id": 10792812749, "lat": 12.9169979, "lon": 77.5778531}, {"type": "node", "id": 10792812753, "lat": 12.9173419, "lon": 77.5776842}, {"type": "node", "id": 10792812754, "lat": 12.9175497, "lon": 77.5747123}, {"type": "node", "id": 10853141991, "lat": 12.9158754, "lon": 77.5747646}, {"type": "node", "id": 10853141999, "lat": 12.9150312, "lon": 77.5737531}, {"type": "node", "id": 10853169805, "lat": 12.9151618, "lon": 77.5737742}, {"type": "node", "id": 10853169808, "lat": 12.9157149, "lon": 77.5738477}, {"type": "node", "id": 10853169809, "lat": 12.9156465, "lon": 77.5743744}, {"type": "node", "id": 10853169810, "lat": 12.9157981, "lon": 77.5743905}, {"type": "node", "id": 10853169811, "lat": 12.916023, "lon": 77.5754794}, {"type": "node", "id": 10853169812, "lat": 12.9162478, "lon": 77.5754634}, {"type": "node", "id": 10853169813, "lat": 12.9165066, "lon": 77.5751361}, {"type": "node", "id": 10853169814, "lat": 12.9168177, "lon": 77.5750476}, {"type": "node", "id": 10853169815, "lat": 12.9170661, "lon": 77.5746345}, {"type": "node", "id": 10853169816, "lat": 12.9175153, "lon": 77.5746357}, {"type": "node", "id": 10853169837, "lat": 12.9135785, "lon": 77.5759435, "tags": {"name": "Shakambari Nagar", "name:ta": "\u0bb7\u0b95\u0bae\u0bcd\u0baa\u0bb0\u0bbf \u0ba8\u0b95\u0bb0\u0bcd", "place": "neighbourhood"}}, {"type": "node", "id": 10854298579, "lat": 12.9172049, "lon": 77.5832651}, {"type": "node", "id": 10854298582, "lat": 12.9172116, "lon": 77.5829533}, {"type": "node", "id": 10854298588, "lat": 12.9173042, "lon": 77.5795249}, {"type": "node", "id": 10854298589, "lat": 12.917486, "lon": 77.579526}, {"type": "node", "id": 10854298590, "lat": 12.9174878, "lon": 77.5792297}, {"type": "node", "id": 10854298591, "lat": 12.9173059, "lon": 77.5792285}, {"type": "node", "id": 10924790341, "lat": 12.9144469, "lon": 77.6137532, "tags": {"name": "Kuvempu Nagar", "name:kn": "\u0c95\u0cc1\u0cb5\u0cc6\u0c82\u0caa\u0cc1 \u0ca8\u0c97\u0cb0", "name:ta": "\u0b95\u0bc1\u0bb5\u0bc7\u0bae\u0bcd\u0baa\u0bc2 \u0ba8\u0b95\u0bb0\u0bcd", "place": "neighbourhood"}}, {"type": "node", "id": 10931504796, "lat": 12.8681419, "lon": 77.5628221, "tags": {"name": "JP Nagar 9th Phase", "name:ta": "\u0b9c\u0bc7\u0baa\u0bbf \u0ba8\u0b95\u0bb0\u0bcd\u200c \u0b95\u0b9f\u0bcd\u0b9f\u0bae\u0bcd 9", "place": "neighbourhood"}}, {"type": "node", "id": 10931504797, "lat": 12.8720746, "lon": 77.553885, "tags": {"name": "BOOHBCS Layout", "place": "neighbourhood"}}, {"type": "node", "id": 10931529962, "lat": 12.8744383, "lon": 77.5579029, "tags": {"name": "Thippasandra", "name:kn": "\u0ca4\u0cbf\u0caa\u0ccd\u0caa\u0cb8\u0c82\u0ca6\u0ccd\u0cb0", "name:ta": "\u0ba4\u0bbf\u0baa\u0bcd\u0baa\u0b9a\u0ba8\u0bcd\u0ba4\u0bcd\u0bb0\u0bbe", "place": "neighbourhood"}}, {"type": "node", "id": 10931529974, "lat": 12.8818851, "lon": 77.5553977, "tags": {"name": "Narayana Nagara", "name:kn": "\u0ca8\u0cbe\u0cb0\u0cbe\u0caf\u0ca3 \u0ca8\u0c97\u0cb0", "name:ta": "\u0ba8\u0bbe\u0bb0\u0bbe\u0baf\u0ba3 \u0ba8\u0b95\u0bb0\u0bbe", "place": "neighbourhood"}}, {"type": "node", "id": 10931529975, "lat": 12.8789514, "lon": 77.5636965, "tags": {"name": "PNB Layout", "place": "neighbourhood"}}, {"type": "node", "id": 10931529976, "lat": 12.8766766, "lon": 77.5603169, "tags": {"name": "MKS Layout", "place": "neighbourhood"}}, {"type": "node", "id": 10978335945, "lat": 12.9074791, "lon": 77.6510668, "tags": {"name": "Parangipalya", "name:kn": "\u0caa\u0cb0\u0c82\u0c97\u0cbf\u0caa\u0cbe\u0cb3\u0ccd\u0caf", "name:ta": "\u0baa\u0bb0\u0b99\u0bcd\u0b95\u0bbf\u0baa\u0bbe\u0bb2\u0bcd\u0baf\u0bbe", "place": "neighbourhood"}}, {"type": "node", "id": 10979388393, "lat": 12.921981, "lon": 77.5358552, "tags": {"name": "Sapthagiri Layout", "name:kn": "\u0cb8\u0caa\u0ccd\u0ca4\u0c97\u0cbf\u0cb0\u0cbf \u0cac\u0ca1\u0cbe\u0cb5\u0ca3\u0cc6", "place": "neighbourhood"}}, {"type": "node", "id": 11012063963, "lat": 12.9247454, "lon": 77.6316074, "tags": {"access": "private", "barrier": "gate"}}, {"type": "node", "id": 11034023520, "lat": 12.91906, "lon": 77.668659}, {"type": "node", "id": 11124250337, "lat": 12.9244812, "lon": 77.6299654, "tags": {"access": "private", "barrier": "gate"}}, {"type": "node", "id": 11140869426, "lat": 12.9192579, "lon": 77.6838123, "tags": {"access": "private", "barrier": "gate"}}, {"type": "node", "id": 11231089045, "lat": 12.9172202, "lon": 77.5818399}, {"type": "node", "id": 11231089048, "lat": 12.9172225, "lon": 77.5815455}, {"type": "node", "id": 11279791943, "lat": 12.9151498, "lon": 77.5675669, "tags": {"name": "Teacher's Colony", "name:ta": "\u0b9f\u0bc0\u0b9a\u0bcd\u0b9a\u0bb0\u0bcd\u0bb8\u0bcd \u0b95\u0bbe\u0bb2\u0ba9\u0bbf", "place": "neighbourhood"}}, {"type": "node", "id": 11279857291, "lat": 12.9169801, "lon": 77.5949882}, {"type": "node", "id": 11279857294, "lat": 12.9169848, "lon": 77.5946851}, {"type": "node", "id": 11279857295, "lat": 12.9166526, "lon": 77.597252}, {"type": "node", "id": 11279857298, "lat": 12.9166599, "lon": 77.5969014}, {"type": "node", "id": 11279857299, "lat": 12.9166157, "lon": 77.5983882}, {"type": "node", "id": 11279857302, "lat": 12.9166252, "lon": 77.59801}, {"type": "node", "id": 11279857310, "lat": 12.916816, "lon": 77.5915903}, {"type": "node", "id": 11279857313, "lat": 12.9168298, "lon": 77.5910136}, {"type": "node", "id": 11279857314, "lat": 12.9167927, "lon": 77.5925624}, {"type": "node", "id": 11279857315, "lat": 12.9168132, "lon": 77.5917083}, {"type": "node", "id": 11279857434, "lat": 12.9169574, "lon": 77.5818638}, {"type": "node", "id": 11279857437, "lat": 12.9169621, "lon": 77.5815691}, {"type": "node", "id": 11292971679, "lat": 12.9268618, "lon": 77.6895136, "tags": {"name": "Devarabeesanahalli", "name:kn": "\u0ca6\u0cc7\u0cb5\u0cb0\u0cac\u0cc0\u0cb8\u0ca8\u0cb9\u0cb3\u0ccd\u0cb3\u0cbf", "name:ta": "\u0ba4\u0bc7\u0bb5\u0bb0\u0bbe\u0baa\u0bc0\u0b9a\u0ba9\u0bb9\u0bb2\u0bcd\u0bb2\u0bbf", "place": "suburb"}}, {"type": "node", "id": 11293087531, "lat": 12.9128386, "lon": 77.5934931, "tags": {"name": "KSRTC Layout", "place": "neighbourhood"}}, {"type": "node", "id": 11293105794, "lat": 12.9144596, "lon": 77.6013654, "tags": {"name": "BHBCS Layout", "place": "neighbourhood"}}, {"type": "node", "id": 11304473527, "lat": 12.9087511, "lon": 77.5798635, "tags": {"name": "Sarakki", "name:kn": "\u0cb8\u0cbe\u0cb0\u0c95\u0ccd\u0c95\u0cbf", "name:ta": "\u0b9a\u0bb0\u0b95\u0bcd\u0b95\u0bbf", "place": "neighbourhood"}}, {"type": "node", "id": 11332315286, "lat": 12.9191595, "lon": 77.6685141, "tags": {"access": "private", "barrier": "gate"}}, {"type": "node", "id": 11425151131, "lat": 12.9122201, "lon": 77.6130609}, {"type": "node", "id": 11425151133, "lat": 12.9111496, "lon": 77.6127287, "tags": {"barrier": "turnstile", "foot": "yes"}}, {"type": "node", "id": 11494201333, "lat": 12.9294194, "lon": 77.6321983}, {"type": "node", "id": 11506512006, "lat": 12.924336, "lon": 77.6924028}, {"type": "node", "id": 11524214915, "lat": 12.9209469, "lon": 77.6689826}, {"type": "node", "id": 11524214916, "lat": 12.9209619, "lon": 77.6688739}, {"type": "node", "id": 11531550688, "lat": 12.9289447, "lon": 77.6290719}, {"type": "node", "id": 11531550691, "lat": 12.9292682, "lon": 77.6291107}, {"type": "node", "id": 11542432108, "lat": 12.9282795, "lon": 77.6290402}, {"type": "node", "id": 11542432109, "lat": 12.9278197, "lon": 77.6289747}, {"type": "node", "id": 11543746684, "lat": 12.9211707, "lon": 77.6947855}, {"type": "node", "id": 11543746957, "lat": 12.9161249, "lon": 77.6933786}, {"type": "node", "id": 11543746958, "lat": 12.9157712, "lon": 77.6934413}, {"type": "node", "id": 11543798100, "lat": 12.9176587, "lon": 77.695349}, {"type": "node", "id": 11548968293, "lat": 12.9219286, "lon": 77.694878}, {"type": "node", "id": 11548968294, "lat": 12.9194098, "lon": 77.6966154}, {"type": "node", "id": 11548968299, "lat": 12.923377, "lon": 77.6888725}, {"type": "node", "id": 11554517126, "lat": 12.9201095, "lon": 77.6878067}, {"type": "node", "id": 11554519737, "lat": 12.9215195, "lon": 77.6878726}, {"type": "node", "id": 11554596791, "lat": 12.9187756, "lon": 77.682828}, {"type": "node", "id": 11554596792, "lat": 12.9192804, "lon": 77.6828657}, {"type": "node", "id": 11554596793, "lat": 12.9194438, "lon": 77.6829636}, {"type": "node", "id": 11554596797, "lat": 12.919483, "lon": 77.6827785}, {"type": "node", "id": 11554596798, "lat": 12.9193416, "lon": 77.6834458}, {"type": "node", "id": 11554596799, "lat": 12.9187497, "lon": 77.6834142}, {"type": "node", "id": 11554596805, "lat": 12.9232826, "lon": 77.6888569}, {"type": "node", "id": 11554596806, "lat": 12.922283, "lon": 77.6879628, "tags": {"barrier": "gate"}}, {"type": "node", "id": 11554651483, "lat": 12.9138348, "lon": 77.6775268, "tags": {"name": "Kaikondrahalli", "name:kn": "\u0c95\u0cc8\u0c95\u0cca\u0c82\u0ca1\u0ccd\u0cb0\u0cb9\u0cb3\u0ccd\u0cb3\u0cbf", "place": "suburb"}}, {"type": "node", "id": 11594237409, "lat": 12.9178503, "lon": 77.6352346, "tags": {"name": "Sector 5", "name:kn": "\u0cb8\u0cc6\u0c95\u0ccd\u0c9f\u0cb0\u0ccd \u0ceb", "place": "neighbourhood"}}, {"type": "node", "id": 11594237410, "lat": 12.903526, "lon": 77.655198}, {"type": "node", "id": 11594237411, "lat": 12.904422, "lon": 77.655434}, {"type": "node", "id": 11594237412, "lat": 12.905317, "lon": 77.65567}, {"type": "node", "id": 11594237413, "lat": 12.906212, "lon": 77.655906}, {"type": "node", "id": 11594237414, "lat": 12.907107, "lon": 77.656142}, {"type": "node", "id": 11594237415, "lat": 12.908057, "lon": 77.656398}, {"type": "node", "id": 11594237416, "lat": 12.909006, "lon": 77.656653}, {"type": "node", "id": 11594237417, "lat": 12.909437, "lon": 77.657062}, {"type": "node", "id": 11594237418, "lat": 12.909512, "lon": 77.657048}, {"type": "node", "id": 11594237419, "lat": 12.909779, "lon": 77.658331}, {"type": "node", "id": 11594237420, "lat": 12.910046, "lon": 77.659615}, {"type": "node", "id": 11594237421, "lat": 12.909859, "lon": 77.660324}, {"type": "node", "id": 11594237422, "lat": 12.9107, "lon": 77.660288}, {"type": "node", "id": 11594237423, "lat": 12.912249, "lon": 77.660609}, {"type": "node", "id": 11594237424, "lat": 12.913632, "lon": 77.661076}, {"type": "node", "id": 11594237425, "lat": 12.914918, "lon": 77.660464}, {"type": "node", "id": 11594237426, "lat": 12.91595, "lon": 77.659913}, {"type": "node", "id": 11594237427, "lat": 12.916792, "lon": 77.659474}, {"type": "node", "id": 11594237428, "lat": 12.917633, "lon": 77.659035}, {"type": "node", "id": 11594237429, "lat": 12.918529, "lon": 77.65788}, {"type": "node", "id": 11594237430, "lat": 12.91979, "lon": 77.657107}, {"type": "node", "id": 11594237431, "lat": 12.920485, "lon": 77.656414}, {"type": "node", "id": 11594237432, "lat": 12.92118, "lon": 77.655722}, {"type": "node", "id": 11594237433, "lat": 12.921709, "lon": 77.655173}, {"type": "node", "id": 11594237434, "lat": 12.922101, "lon": 77.655081}, {"type": "node", "id": 11594237435, "lat": 12.922374, "lon": 77.655061}, {"type": "node", "id": 11594237436, "lat": 12.922692, "lon": 77.654974}, {"type": "node", "id": 11594237437, "lat": 12.923115, "lon": 77.654988}, {"type": "node", "id": 11594237438, "lat": 12.923192, "lon": 77.655057}, {"type": "node", "id": 11594237439, "lat": 12.923507, "lon": 77.655015}, {"type": "node", "id": 11594237440, "lat": 12.923561, "lon": 77.654986}, {"type": "node", "id": 11594237441, "lat": 12.923632, "lon": 77.654593}, {"type": "node", "id": 11594237442, "lat": 12.923884, "lon": 77.653304}, {"type": "node", "id": 11594237443, "lat": 12.924182, "lon": 77.651714}, {"type": "node", "id": 11594237444, "lat": 12.924233, "lon": 77.651371}, {"type": "node", "id": 11594237445, "lat": 12.924161, "lon": 77.651305}, {"type": "node", "id": 11594237446, "lat": 12.924271, "lon": 77.650933}, {"type": "node", "id": 11594237447, "lat": 12.924359, "lon": 77.650355}, {"type": "node", "id": 11594237448, "lat": 12.924546, "lon": 77.6505}, {"type": "node", "id": 11594237449, "lat": 12.924738, "lon": 77.650017}, {"type": "node", "id": 11594237450, "lat": 12.924838, "lon": 77.649748}, {"type": "node", "id": 11594237451, "lat": 12.924949, "lon": 77.64974}, {"type": "node", "id": 11594237452, "lat": 12.924847, "lon": 77.64948}, {"type": "node", "id": 11594237453, "lat": 12.924765, "lon": 77.648882}, {"type": "node", "id": 11594237454, "lat": 12.9247829, "lon": 77.6488219}, {"type": "node", "id": 11594237455, "lat": 12.924752, "lon": 77.648521}, {"type": "node", "id": 11594237456, "lat": 12.924786, "lon": 77.647553}, {"type": "node", "id": 11594237457, "lat": 12.924589, "lon": 77.646905}, {"type": "node", "id": 11594237458, "lat": 12.924654, "lon": 77.646429}, {"type": "node", "id": 11594237459, "lat": 12.924771, "lon": 77.645904}, {"type": "node", "id": 11594237460, "lat": 12.924778, "lon": 77.645529}, {"type": "node", "id": 11594237461, "lat": 12.916379, "lon": 77.639721}, {"type": "node", "id": 11594237462, "lat": 12.917131, "lon": 77.640388}, {"type": "node", "id": 11594237463, "lat": 12.917882, "lon": 77.641055}, {"type": "node", "id": 11594237464, "lat": 12.918634, "lon": 77.641722}, {"type": "node", "id": 11594237465, "lat": 12.919386, "lon": 77.642389}, {"type": "node", "id": 11594237466, "lat": 12.920137, "lon": 77.643057}, {"type": "node", "id": 11594237467, "lat": 12.920889, "lon": 77.643724}, {"type": "node", "id": 11594237468, "lat": 12.921641, "lon": 77.644391}, {"type": "node", "id": 11594258569, "lat": 12.912066, "lon": 77.64541}, {"type": "node", "id": 11594258570, "lat": 12.911971, "lon": 77.646625}, {"type": "node", "id": 11594258571, "lat": 12.911876, "lon": 77.647485}, {"type": "node", "id": 11594258572, "lat": 12.911863, "lon": 77.648368}, {"type": "node", "id": 11594258573, "lat": 12.911917, "lon": 77.649964}, {"type": "node", "id": 11594258574, "lat": 12.911962, "lon": 77.651486}, {"type": "node", "id": 11594258575, "lat": 12.91198, "lon": 77.651857}, {"type": "node", "id": 11594258576, "lat": 12.912491, "lon": 77.651844}, {"type": "node", "id": 11594258577, "lat": 12.912513, "lon": 77.652786}, {"type": "node", "id": 11594258578, "lat": 12.912535, "lon": 77.653728}, {"type": "node", "id": 11594258579, "lat": 12.912143, "lon": 77.653728}, {"type": "node", "id": 11594258580, "lat": 12.912187, "lon": 77.654312}, {"type": "node", "id": 11594258581, "lat": 12.911244, "lon": 77.654335}, {"type": "node", "id": 11594258582, "lat": 12.910301, "lon": 77.654357}, {"type": "node", "id": 11594258583, "lat": 12.909358, "lon": 77.65438}, {"type": "node", "id": 11594258584, "lat": 12.908415, "lon": 77.654402}, {"type": "node", "id": 11594258585, "lat": 12.907472, "lon": 77.654425}, {"type": "node", "id": 11594258586, "lat": 12.90653, "lon": 77.654447}, {"type": "node", "id": 11594258587, "lat": 12.905587, "lon": 77.65447}, {"type": "node", "id": 11594258588, "lat": 12.904644, "lon": 77.654493}, {"type": "node", "id": 11594258589, "lat": 12.923556, "lon": 77.64507}, {"type": "node", "id": 11594258590, "lat": 12.91862, "lon": 77.632093}, {"type": "node", "id": 11594258591, "lat": 12.919742, "lon": 77.632425}, {"type": "node", "id": 11594258592, "lat": 12.919336, "lon": 77.632746}, {"type": "node", "id": 11594258593, "lat": 12.919174, "lon": 77.632735}, {"type": "node", "id": 11594258594, "lat": 12.919219, "lon": 77.632939}, {"type": "node", "id": 11594258595, "lat": 12.918868, "lon": 77.633258}, {"type": "node", "id": 11594258596, "lat": 12.91896, "lon": 77.633571}, {"type": "node", "id": 11594258597, "lat": 12.919173, "lon": 77.633829}, {"type": "node", "id": 11594258598, "lat": 12.919125, "lon": 77.634021}, {"type": "node", "id": 11594258599, "lat": 12.919249, "lon": 77.634157}, {"type": "node", "id": 11594258600, "lat": 12.920132, "lon": 77.634702}, {"type": "node", "id": 11594258601, "lat": 12.920315, "lon": 77.634782}, {"type": "node", "id": 11594258602, "lat": 12.920537, "lon": 77.634735}, {"type": "node", "id": 11594258603, "lat": 12.920775, "lon": 77.634465}, {"type": "node", "id": 11594258604, "lat": 12.920969, "lon": 77.633739}, {"type": "node", "id": 11594258605, "lat": 12.920928, "lon": 77.633248}, {"type": "node", "id": 11594258606, "lat": 12.921768, "lon": 77.633514}, {"type": "node", "id": 11594258607, "lat": 12.921719, "lon": 77.633723}, {"type": "node", "id": 11594258608, "lat": 12.922181, "lon": 77.633843}, {"type": "node", "id": 11594258609, "lat": 12.922425, "lon": 77.633855}, {"type": "node", "id": 11594258610, "lat": 12.922785, "lon": 77.6339}, {"type": "node", "id": 11594258611, "lat": 12.923309, "lon": 77.633962}, {"type": "node", "id": 11594258612, "lat": 12.923916, "lon": 77.634023}, {"type": "node", "id": 11594258613, "lat": 12.923859, "lon": 77.634774}, {"type": "node", "id": 11594258614, "lat": 12.923513, "lon": 77.634734}, {"type": "node", "id": 11594258615, "lat": 12.92349, "lon": 77.634856}, {"type": "node", "id": 11594258616, "lat": 12.923348, "lon": 77.635694}, {"type": "node", "id": 11594258617, "lat": 12.923784, "lon": 77.635738}, {"type": "node", "id": 11594258618, "lat": 12.923802, "lon": 77.63608}, {"type": "node", "id": 11594258619, "lat": 12.916578, "lon": 77.631727}, {"type": "node", "id": 11594258620, "lat": 12.916496, "lon": 77.632695}, {"type": "node", "id": 11594258621, "lat": 12.916414, "lon": 77.633663}, {"type": "node", "id": 11594258622, "lat": 12.916267, "lon": 77.634943}, {"type": "node", "id": 11594258623, "lat": 12.91612, "lon": 77.636223}, {"type": "node", "id": 11594258624, "lat": 12.916004, "lon": 77.637213}, {"type": "node", "id": 11594258625, "lat": 12.910509, "lon": 77.625832}, {"type": "node", "id": 11594258626, "lat": 12.910641, "lon": 77.625761}, {"type": "node", "id": 11594258627, "lat": 12.910849, "lon": 77.626038}, {"type": "node", "id": 11594258628, "lat": 12.910795, "lon": 77.626477}, {"type": "node", "id": 11594258629, "lat": 12.910815, "lon": 77.626833}, {"type": "node", "id": 11594258640, "lat": 12.922393, "lon": 77.645058}, {"type": "node", "id": 11594258641, "lat": 12.921363, "lon": 77.645014}, {"type": "node", "id": 11594258642, "lat": 12.920334, "lon": 77.64497}, {"type": "node", "id": 11594258643, "lat": 12.919304, "lon": 77.644927}, {"type": "node", "id": 11594258644, "lat": 12.918275, "lon": 77.644883}, {"type": "node", "id": 11594258645, "lat": 12.917245, "lon": 77.644839}, {"type": "node", "id": 11594258646, "lat": 12.916227, "lon": 77.644794}, {"type": "node", "id": 11594258647, "lat": 12.91521, "lon": 77.644749}, {"type": "node", "id": 11594258648, "lat": 12.914192, "lon": 77.644704}, {"type": "node", "id": 11594258649, "lat": 12.913174, "lon": 77.644658}, {"type": "node", "id": 11594258650, "lat": 12.915888, "lon": 77.638202}, {"type": "node", "id": 11594258651, "lat": 12.91491, "lon": 77.638154}, {"type": "node", "id": 11594258652, "lat": 12.913621, "lon": 77.638112}, {"type": "node", "id": 11594258653, "lat": 12.912181, "lon": 77.643679}, {"type": "node", "id": 11594258654, "lat": 12.912206, "lon": 77.642744}, {"type": "node", "id": 11594258655, "lat": 12.912231, "lon": 77.641809}, {"type": "node", "id": 11594258656, "lat": 12.912256, "lon": 77.640875}, {"type": "node", "id": 11594258657, "lat": 12.912281, "lon": 77.63994}, {"type": "node", "id": 11594258658, "lat": 12.912306, "lon": 77.639005}, {"type": "node", "id": 11594258659, "lat": 12.904808, "lon": 77.643543}, {"type": "node", "id": 11594258660, "lat": 12.905009, "lon": 77.642651}, {"type": "node", "id": 11594258661, "lat": 12.905333, "lon": 77.641481}, {"type": "node", "id": 11594258662, "lat": 12.905512, "lon": 77.6406}, {"type": "node", "id": 11594258663, "lat": 12.905716, "lon": 77.639233}, {"type": "node", "id": 11594258664, "lat": 12.905775, "lon": 77.639003}, {"type": "node", "id": 11594258665, "lat": 12.905859, "lon": 77.638573}, {"type": "node", "id": 11594258666, "lat": 12.907086, "lon": 77.638048}, {"type": "node", "id": 11594258667, "lat": 12.908135, "lon": 77.638052}, {"type": "node", "id": 11594258668, "lat": 12.909184, "lon": 77.638057}, {"type": "node", "id": 11594258669, "lat": 12.910233, "lon": 77.638061}, {"type": "node", "id": 11594258670, "lat": 12.911282, "lon": 77.638066}, {"type": "node", "id": 11594258671, "lat": 12.905582, "lon": 77.644295}, {"type": "node", "id": 11594258672, "lat": 12.906521, "lon": 77.644341}, {"type": "node", "id": 11594258673, "lat": 12.90746, "lon": 77.644386}, {"type": "node", "id": 11594258674, "lat": 12.908399, "lon": 77.644432}, {"type": "node", "id": 11594258675, "lat": 12.909339, "lon": 77.644477}, {"type": "node", "id": 11594258676, "lat": 12.910278, "lon": 77.644523}, {"type": "node", "id": 11594258677, "lat": 12.911217, "lon": 77.644568}, {"type": "node", "id": 11594258678, "lat": 12.912156, "lon": 77.644613}, {"type": "node", "id": 11594258679, "lat": 12.903701, "lon": 77.654515}, {"type": "node", "id": 11594258680, "lat": 12.903802, "lon": 77.654121}, {"type": "node", "id": 11594258681, "lat": 12.903332, "lon": 77.654032}, {"type": "node", "id": 11594258682, "lat": 12.902532, "lon": 77.653871}, {"type": "node", "id": 11594258683, "lat": 12.902747, "lon": 77.65228}, {"type": "node", "id": 11594258684, "lat": 12.902561, "lon": 77.652268}, {"type": "node", "id": 11594258685, "lat": 12.901521, "lon": 77.652345}, {"type": "node", "id": 11594258686, "lat": 12.901132, "lon": 77.651966}, {"type": "node", "id": 11594258687, "lat": 12.902061, "lon": 77.65106}, {"type": "node", "id": 11594258688, "lat": 12.902033, "lon": 77.65099}, {"type": "node", "id": 11594258689, "lat": 12.90197, "lon": 77.650784}, {"type": "node", "id": 11594258690, "lat": 12.90146, "lon": 77.649434}, {"type": "node", "id": 11594258691, "lat": 12.901304, "lon": 77.648988}, {"type": "node", "id": 11594258692, "lat": 12.901204, "lon": 77.648677}, {"type": "node", "id": 11594258693, "lat": 12.901201, "lon": 77.648623}, {"type": "node", "id": 11594258694, "lat": 12.901806, "lon": 77.648312}, {"type": "node", "id": 11594258695, "lat": 12.902092, "lon": 77.648286}, {"type": "node", "id": 11594258696, "lat": 12.90234, "lon": 77.648279}, {"type": "node", "id": 11594258697, "lat": 12.902893, "lon": 77.648372}, {"type": "node", "id": 11594258698, "lat": 12.903245, "lon": 77.648346}, {"type": "node", "id": 11594258699, "lat": 12.903273, "lon": 77.648741}, {"type": "node", "id": 11594258700, "lat": 12.903288, "lon": 77.648902}, {"type": "node", "id": 11594258701, "lat": 12.903765, "lon": 77.648937}, {"type": "node", "id": 11594258702, "lat": 12.904008, "lon": 77.648959}, {"type": "node", "id": 11594258703, "lat": 12.904241, "lon": 77.648976}, {"type": "node", "id": 11594258704, "lat": 12.904742, "lon": 77.649014}, {"type": "node", "id": 11594258705, "lat": 12.904862, "lon": 77.649023}, {"type": "node", "id": 11594258706, "lat": 12.905221, "lon": 77.649051}, {"type": "node", "id": 11594258707, "lat": 12.905354, "lon": 77.64906}, {"type": "node", "id": 11594258708, "lat": 12.905724, "lon": 77.649066}, {"type": "node", "id": 11594258709, "lat": 12.905979, "lon": 77.649073}, {"type": "node", "id": 11594258710, "lat": 12.906033, "lon": 77.649072}, {"type": "node", "id": 11594258711, "lat": 12.906281, "lon": 77.647719}, {"type": "node", "id": 11594258712, "lat": 12.906566, "lon": 77.646628}, {"type": "node", "id": 11594258713, "lat": 12.906851, "lon": 77.645538}, {"type": "node", "id": 11594258714, "lat": 12.907142, "lon": 77.64446}, {"type": "node", "id": 11594258715, "lat": 12.9063, "lon": 77.644938}, {"type": "node", "id": 11594258716, "lat": 12.905449, "lon": 77.645273}, {"type": "node", "id": 11594258717, "lat": 12.904599, "lon": 77.645608}, {"type": "node", "id": 11594258718, "lat": 12.904335, "lon": 77.645798}, {"type": "node", "id": 11594258719, "lat": 12.904276, "lon": 77.645825}, {"type": "node", "id": 11594258720, "lat": 12.904643, "lon": 77.64425}, {"type": "node", "id": 11594258721, "lat": 12.909758, "lon": 77.626252}, {"type": "node", "id": 11594258722, "lat": 12.909374, "lon": 77.625799}, {"type": "node", "id": 11594258723, "lat": 12.909156, "lon": 77.625661}, {"type": "node", "id": 11594258724, "lat": 12.908478, "lon": 77.625508}, {"type": "node", "id": 11594258725, "lat": 12.908433, "lon": 77.625853}, {"type": "node", "id": 11594258726, "lat": 12.908417, "lon": 77.626133}, {"type": "node", "id": 11594258727, "lat": 12.908185, "lon": 77.627225}, {"type": "node", "id": 11594258728, "lat": 12.908135, "lon": 77.627996}, {"type": "node", "id": 11594258729, "lat": 12.908106, "lon": 77.62847}, {"type": "node", "id": 11594258730, "lat": 12.907782, "lon": 77.628664}, {"type": "node", "id": 11594258731, "lat": 12.907201, "lon": 77.629001}, {"type": "node", "id": 11594258732, "lat": 12.907073, "lon": 77.629088}, {"type": "node", "id": 11594258733, "lat": 12.906941, "lon": 77.629175}, {"type": "node", "id": 11594258734, "lat": 12.906816, "lon": 77.629262}, {"type": "node", "id": 11594258735, "lat": 12.906743, "lon": 77.62986}, {"type": "node", "id": 11594258736, "lat": 12.906918, "lon": 77.63035}, {"type": "node", "id": 11594258737, "lat": 12.906885, "lon": 77.63057}, {"type": "node", "id": 11594258738, "lat": 12.907025, "lon": 77.630878}, {"type": "node", "id": 11594258739, "lat": 12.906737, "lon": 77.63099}, {"type": "node", "id": 11594258740, "lat": 12.906838, "lon": 77.631429}, {"type": "node", "id": 11594258741, "lat": 12.906685, "lon": 77.631802}, {"type": "node", "id": 11594258742, "lat": 12.906665, "lon": 77.632403}, {"type": "node", "id": 11594258743, "lat": 12.906656, "lon": 77.632833}, {"type": "node", "id": 11594258744, "lat": 12.907032, "lon": 77.634067}, {"type": "node", "id": 11594258745, "lat": 12.907259, "lon": 77.634518}, {"type": "node", "id": 11594258746, "lat": 12.907387, "lon": 77.635416}, {"type": "node", "id": 11594258747, "lat": 12.906992, "lon": 77.635341}, {"type": "node", "id": 11594258748, "lat": 12.906163, "lon": 77.634885}, {"type": "node", "id": 11594258749, "lat": 12.906141, "lon": 77.635069}, {"type": "node", "id": 11594258750, "lat": 12.906662, "lon": 77.635298}, {"type": "node", "id": 11594258751, "lat": 12.906925, "lon": 77.635469}, {"type": "node", "id": 11594258752, "lat": 12.90711, "lon": 77.635672}, {"type": "node", "id": 11594258753, "lat": 12.906905, "lon": 77.635993}, {"type": "node", "id": 11594258754, "lat": 12.906396, "lon": 77.63706}, {"type": "node", "id": 11594258755, "lat": 12.906048, "lon": 77.63801}, {"type": "node", "id": 11594258756, "lat": 12.906037, "lon": 77.638043}, {"type": "node", "id": 11594258757, "lat": 12.912331, "lon": 77.63807}, {"type": "node", "id": 11594258758, "lat": 12.912364, "lon": 77.636912}, {"type": "node", "id": 11594258759, "lat": 12.912397, "lon": 77.635753},